,online_event,organizer_id,venue_id,ITEM_ID,category,name_text,description_text,start_timezone,start_local,end_local,address,city,region,postal_code,latitude,longitude
0,False,4550013695.0,60607087.0,157707020945.0,food-and-drink,Nyc #1 Certified Saturdays at Katra nyc,INDOOR / OUTDOOR DINING Available,America/New_York,2021-06-05T23:00:00,2021-12-26T04:00:00,217 Bowery,New York,NY,10002,40.7217244,-73.9932124
1,False,8391788178.0,68200189.0,157637444841.0,food-and-drink,CARIBBEAN FRIDAYS,WELCOME TO THE ONLY REAL AUTHENTIC CARIBBEAN EVENT IN NYC..... EVERY FRIDAY COME GET A TASTE OF THE CARIBBEAN FLAVORS.,America/New_York,2021-06-04T22:00:00,2022-02-05T04:00:00,440 9th Avenue,New York,NY,10001,40.7538231,-73.99573149999999
2,False,4550013695.0,71387959.0,191294646437.0,food-and-drink,New years day,The Best Thanksgiving eve party in nyc,America/New_York,2022-01-01T23:00:00,2022-01-02T04:00:00,217 Bowery,New York,NY,10002,40.7217244,-73.9932124
3,False,7971404951.0,63158817.0,163517941565.0,food-and-drink,"BRUNCH N SHHH,  Saturday 2hr open bar brunch and day party,",NYC's #1 Weekly Saturday for 5yrs strong is back at a new location --- Katra Lounge,America/New_York,2021-07-24T14:00:00,2021-12-25T22:00:00,217 Bowery,New York,NY,10002,40.72169290000001,-73.9931265
4,False,7935521513.0,61655581.0,161728904507.0,food-and-drink,Sunday Fundaze Hosted by  Tara Wallace & Chrissy Monroe of LHHNY,Sunday Fundaze Day Party & Brunch Hosted by Chrissy Monroe & Tara Wallace of Love & Hip-Hop New York!,America/New_York,2021-07-04T14:00:00,2023-06-25T23:00:00,168 Delancey Street,New York,NY,10002,40.71797129999999,-73.9852887
5,False,6008097331.0,61811283.0,162500135279.0,food-and-drink,CARIBBEAN SATURDAYS #CUTTYPALANCE (LADIES FREE),THE LIVEST CARIBBEAN SATURDAYS EVENT IN NYC,America/New_York,2021-07-10T22:00:00,2022-01-02T04:00:00,147-02 Liberty Avenue,Queens,NY,11435,40.6961964,-73.8041493
6,False,7971404951.0,61483989.0,160989274253.0,food-and-drink,"After Work Thursdays On The Hudson, Happy Hour, Live Music, Free Entry","Grand Re-opening Thursday, Dec 2nd. Thursday afterwork in Harlem ""On The Hudson""  Happy hour, Live DJ, Indoor/Outdoor seating and more.",America/New_York,2021-07-01T16:00:00,2021-12-31T00:00:00,701 West 133rd Street,New York,NY,10027,40.8202992,-73.9589649
7,False,15811242331.0,64052609.0,173842606917.0,food-and-drink,NYC Caribbean Vibes Brunch,THE BEST BOTTOMLESS BRUNCH IN NYC IN NYC,America/New_York,2021-09-18T13:00:00,2021-12-26T20:00:00,506 9th Avenue,New York,NY,10018,40.7560837,-73.994125
8,False,9789186973.0,67568819.0,191148158287.0,food-and-drink,Hot 97's Black Friday @ Taj,"Friday November 26th Black Friday  @ Taj: 
Everyone Free Entry with Rsvp",America/New_York,2021-11-26T23:00:00,2021-11-27T04:00:00,48 West 21st Street,New York,NY,10010,40.74107300000001,-73.99293
9,False,4550013695.0,67922279.0,158497228477.0,food-and-drink,Caribbean Fridays,WELCOME TO THE ONLY REAL AUTHENTIC CARIBBEAN EVENT IN NYC..... EVERY FRIDAY COME GET A TASTE OF THE CARIBBEAN FLAVORS.,America/New_York,2021-06-11T23:00:00,2022-01-01T04:00:00,440 9th Avenue,New York,NY,10001,40.7538231,-73.99573149999999
10,False,7935521513.0,59593739.0,153542526831.0,food-and-drink,DAY SHIFT Fridays After-Work & Dinner Party,Day Shift Fridays Afterwork & Dinner Party @ TAJ,America/New_York,2021-05-14T17:00:00,2022-04-30T00:00:00,48W. 21ST. STREET,New York,NY,10010,40.7411202,-73.9927992
11,False,36612506.0,64144969.0,174284017187.0,food-and-drink,#BeatsEatsDrinks Afterwork Fridays @ Oracle Lounge,"Fabulous Entertainment Presents
#BeatsEatsDrinks Afterwork Fridays
Brooklyn's Premier Afterwork Party
Each & Every Friday",America/New_York,2021-10-29T17:00:00,2022-10-29T04:00:00,2937 Atlantic Avenue (corner of Ashford St),Brooklyn,NY,11207,40.6778737,-73.8858188
12,False,4550013695.0,59646375.0,140022841087.0,food-and-drink,Ny best party certified Saturdays at katra,INDOOR / OUTDOOR DINING Available,America/New_York,2021-11-27T23:00:00,2021-11-28T04:00:00,217 Bowery,New York,NY,10002,40.7217244,-73.9932124
13,False,11110363924.0,51431040.0,110818543246.0,food-and-drink,Rooftop Reds Reservations 2021,"Rooftop Reds is the world's first commercial rooftop vineyard--Our 168 grapevines could use some company, so come for a drink or two!",America/New_York,2020-07-03T17:00:00,2021-11-28T16:00:00,299 Sands Street,Brooklyn,NY,11205,40.69965239999999,-73.98027100000002
14,False,4881348919.0,53044587.0,120588169461.0,food-and-drink,R&B SUNDAYS AT TAJ NYC!!!! BEST BRUNCH IN THE CITY!!! #SocialCity,BEST SUNDAY BRUNCH IN THE CITY!!! BEAUTIFUL PEOPLE!!! GREAT FOOD!!! BETTER DRINKS!!!,America/New_York,2020-09-13T12:00:00,2022-01-02T23:00:00,48 West 21st Street,New York,NY,10010,40.74107300000001,-73.99293
15,False,4550013695.0,66405119.0,157797262861.0,food-and-drink,Caribbean Fridays  Return At  Hudson Station Free Rum Punch,WELCOME TO THE ONLY REAL AUTHENTIC CARIBBEAN EVENT IN NYC..... EVERY FRIDAY COME GET A TASTE OF THE CARIBBEAN FLAVORS.,America/New_York,2021-11-26T23:00:00,2021-11-27T04:00:00,440 9th Avenue,New York,NY,10001,40.7538231,-73.99573149999999
16,False,30566911010.0,51431774.0,110835457838.0,food-and-drink,A Taste of RMV,"Spend some time at the farm & enjoy some of our food, wines, ciders & beer in a beautiful environment with good people and good music.",America/New_York,2020-07-10T16:00:00,2021-12-19T17:00:00,103 Burroughs Drive,West Park,NY,12493,41.7833671,-73.96247869999999
17,False,3031803096.0,56890413.0,140605461721.0,food-and-drink,Melanin & Mimosas Brunch Party At TAJ NYC,"Join Us At Manhattan’s Best Indoor And Outdoor Restaurant & Lounge Dining Experience.
For Fast Reservation Confirmation Text 917-232-2177",America/New_York,2021-02-13T12:00:00,2022-01-29T22:00:00,48 West 21st Street,New York,NY,10010,40.741072,-73.99293
18,False,33605204221.0,61868077.0,162740060903.0,food-and-drink,Roses & Rosé Brunch + Day Party,Rose & Rosé Day Party,America/New_York,2021-08-01T16:00:00,2022-01-02T22:00:00,125 West 26th Street,New York,NY,10001,40.7454267,-73.99223289999999
19,False,8238971900.0,44454847.0,70382735657.0,food-and-drink,Upscale Friday NYC ( Queens ),Upscale FRIDAYS NYC,America/New_York,2019-08-30T23:00:00,2022-01-22T04:00:00,36-21 Steinway Street,Queens,NY,11101,40.7529425,-73.92362809999997
20,False,31174223647.0,57364245.0,142897944599.0,health,Beginners Yoga Flow  at New Scotland PT,Every Wednesday  6pm-7pm at New Scotland PT,America/New_York,2021-03-03T18:00:00,2021-12-22T19:00:00,New Scotland Road,Slingerlands,NY,12159,42.6317843,-73.9001808
21,False,709154575.0,62612381.0,166750377869.0,health,2021 Annual Holiday Party,Please join us for the annual HLNY Holiday Party at the Terrace On The Park!,America/New_York,2021-12-02T18:00:00,2021-12-02T21:00:00,52-11 111th Street,Queens,NY,11368,40.7445402,-73.850749
22,False,32954921887.0,58999169.0,151251151265.0,health,Free Bedtime Yoga Workshop,zzzzz,America/New_York,2021-04-21T21:30:00,2022-04-20T22:30:00,300 Broadway,New York,NY,10001,40.7149697,-74.00516209999999
23,False,32954921887.0,58435177.0,148794828337.0,health,Free Stress Management Workshop,Get Mentally Fit!,America/New_York,2021-04-03T11:30:00,2022-04-02T13:30:00,300 Broadway,New York,NY,10001,40.7149697,-74.00516209999999
24,False,10928932734.0,58176615.0,147652944933.0,health,Soul Talks,"Explore the philosophy of bhakti, which is the spiritual practice of awakening our potential to love.",America/New_York,2021-04-03T11:00:00,2023-04-15T13:00:00,25 First Avenue,New York,NY,10003,40.7237768,-73.9884895
25,False,149014853.0,46859933.0,92076225469.0,health,Hypno-Vortex Guided Meditation: On-line,"Guided meditation and healing for releasing old issues and improving your life, health, happiness, and more.",America/New_York,2020-02-05T19:00:00,2023-03-01T21:00:00,Zoom address to sent to all paid attendess the day of the event,New York,NY,10000,40.7467922,-73.99328059999999
26,False,32954921887.0,59069285.0,151478597563.0,health,Make Stress Work For You (Free Workshop),Dont Worry Be Happy!,America/New_York,2021-04-22T18:30:00,2022-04-21T19:30:00,300 Broadway,New York,NY,10001,40.7149697,-74.00516209999999
27,False,17681061078.0,51144390.0,54013809759.0,health,ONLINE: Let's Meditate New York : Free Guided Meditation Classes,"Sunday Free Guided Meditation class. Easy, practical and useful. Meditate for spiritual awakening , stress care, joy & health. Register now",America/New_York,2019-01-08T18:00:00,2024-12-22T11:00:00,Online -Zoom,New York,NY,10027,40.8138912,-73.96243270000001
28,False,17322455287.0,65705009.0,182107477367.0,health,The Roller Wave: 99 Scott Bashment Part 3 XMAS EDITION,We are back at the beautiful 99 Scott located in Williamsburg Bklyn for part 3 of our roller disco Soiree!!!,America/New_York,2021-12-18T20:00:00,2021-12-19T02:00:00,99 Scott Avenue,Brooklyn,NY,11237,40.7104338,-73.9231556
29,False,32954921887.0,59210897.0,152127841469.0,health,Free Sugar Reset Masterclass,Get Fit!,America/New_York,2021-04-27T18:30:00,2022-04-26T19:30:00,300 Broadway,New York,NY,10001,40.7149697,-74.00516209999999
30,False,14367075435.0,44760875.0,87144761327.0,health,Breastfeeding Class,This class for expectant parents offers information on how to initiate successful breastfeeding.,America/New_York,2020-01-25T10:00:00,2021-12-04T12:30:00,701 North Broadway,Sleepy Hollow,NY,10591,41.1087955,-73.86334190000002
31,False,34715367343.0,63958149.0,173325289607.0,health,Momprenuers on Mental Health,Six Influential Moms Navigating Business and Parenting After Quarantine,America/New_York,2021-12-05T12:00:00,2021-12-05T17:00:00,269 Meserole Street,Brooklyn,NY,11206,40.7088901,-73.9374058
32,False,17681061078.0,53745265.0,124572378337.0,health,ONLINE: New York Saturday Free Guided Meditation Classes,"Free Guided Meditation Classes. Meditation that you can use. Meditate for spiritual awakening, stress care, joy & health. Register now!",America/New_York,2020-10-10T18:45:00,2024-09-07T20:00:00,Online -Zoom,New York,NY,10027,40.8138912,-73.96243270000001
33,False,18560598039.0,66034169.0,183951482837.0,health,Free Workout at Athleta Flatiron 5th Ave,Enjoy a free workout led by one of FlexIt's Master Trainers,America/New_York,2021-10-09T10:00:00,2021-12-04T11:00:00,126 5th Avenue,New York,NY,10011,40.7385057,-73.9922316
34,False,33718421231.0,65058469.0,178919742767.0,health,Summer on the Hudson: Forest Bathing,We invite you to join us in reconnecting with nature by participating in a guided Forest Bathing experience.,America/New_York,2021-10-16T09:00:00,2021-12-18T10:30:00,Riverside Drive,New York,NY,10024,40.7870938,-73.98216180000001
35,False,13631349151.0,63266837.0,170204824211.0,health,Wellness Wednesday: Sound Bath in Lesley Dill's Rush,"Enjoy a unique sound bath healing experience within Rush, an immersive collage artwork by artist Lesley Dill.",America/New_York,2021-10-13T13:00:00,2021-12-01T14:00:00,735 Anderson Hill Rd,Purchase,NY,10577,41.048462,-73.70294899999999
36,False,10901857525.0,40417067.0,75905903601.0,health,Nutrition 101 Webinar: Increase Your Metabolism and Burn Fat Naturally,Join Dr. Kevin to learn how to increase your metabolism and burn fat! Don't get confused with all the nutrition information overload online.,America/New_York,2021-11-01T19:00:00,2023-03-06T20:00:00,476 5th Ave,New York,NY,10018,40.75318230000001,-73.98225339999999
37,False,12916347934.0,56810761.0,139948171749.0,health,Salt Therapy + Sound Healing,Relax & Recharge with Salt Therapy & Sound Healing,America/New_York,2021-02-03T19:00:00,2021-12-29T20:00:00,90 East 10th Street,New York,NY,10003,40.731083,-73.9896415
38,False,33758465593.0,61937757.0,163092067765.0,health,Alchemy Sound Bath,Alchemy Sound Bath,America/New_York,2021-07-21T18:30:00,2022-04-20T19:30:00,391 Turkey Hill Road,Ithaca,NY,14850,42.43288159999999,-76.4274586
39,False,14694516590.0,48215357.0,83624582377.0,health,Huntington Hospital Maternity Tours,Description,America/New_York,2020-01-04T13:00:00,2022-02-01T22:00:00,270 Park Avenue,Huntington,NY,11743,40.8794658,-73.41608489999999
40,False,19898481120.0,68180069.0,182544273837.0,business,Business of Cannabis: New York Sessions,Join 200+ industry leaders for a conversation and networking as part of Business of Cannabis: New York Sessions.,America/New_York,2021-12-09T19:00:00,2021-12-09T22:00:00,96 Wythe Avenue,Brooklyn,NY,11249,40.7215045,-73.9587016
41,False,9879419208.0,67842249.0,192082763717.0,business,"Jan 10 - NY's Biggest Tech,  Entrepreneur & Business Networking Affair",Nov 29- NY Biggest Professional Networking Affair - Entrepreneurs & Business,America/New_York,2022-01-10T18:30:00,2022-01-10T21:00:00,71 W 35th St,New York,NY,10001,40.7503922,-73.9868091
42,False,17759884003.0,65142819.0,179281203907.0,business,Cesar & DJ Envy's Real Estate Seminar [NEW YORK],"Cesar (Flipping_NJ)and DJ Envy are bringing the whole ""From Start 2 Flip"" crew to NEW YORK CITY for their 1st in person seminar of 2022!!!",America/New_York,2022-02-27T11:00:00,2022-02-27T15:00:00,429 11th Avenue,New York,NY,10001,40.757797,-74.0023264
43,False,9879419208.0,64664859.0,176795138017.0,business,Brooklyn Big Professional Networking Affair - Game Changers & Professionals,"Brooklyn's Biggest Professional Networking Affair - Artists , Entrepreneurs, Game-Changers & Professionals",America/New_York,2021-12-20T19:00:00,2021-12-20T21:00:00,80 N 7th St,Brooklyn,NY,11249,40.7196012,-73.9608177
44,False,21985046547.0,61572683.0,161326765699.0,business,Women & Moms In Business Networking Brunch Meetup,"Let's get out from our day-to-day week. Come out to meet, network and collaborate with other like minded entrepreneurs like you.",America/New_York,2021-07-23T11:30:00,2021-12-17T13:00:00,888 8th Avenue,New York,NY,10019,40.763727,-73.9848476
45,False,29171796091.0,62235629.0,164755787997.0,business,Pop Up Shop (Every Weekend),"Vendors Needed for Pop up Shop!!
Event for Small Business owners to sell their Products & Services.",America/New_York,2021-07-31T12:00:00,2022-11-26T20:00:00,250 Knickerbocker Avenue,Brooklyn,NY,11237,40.7025065,-73.9252585
46,False,8491245540.0,54722035.0,129534275505.0,business,"New York Virtual Job Fair December 16, 2021",Looking for a job in  New York? If you are this event is a must attend. Meet with top hiring companies in New York.,America/New_York,2021-12-16T09:00:00,2021-12-16T15:00:00,,,,,,
47,False,11845522260.0,50168366.0,102178448490.0,business,New York Build 2022 - The Leading and Largest Construction Show for NY,Join us for the largest construction & design show for NYC and the Tri-state area.,America/New_York,2022-03-02T09:30:00,2022-03-03T16:00:00,"655 W. 34th St.,",New York,NY,10001,40.7577771,-74.00259069999998
48,False,13704361686.0,63025031.0,133381027243.0,business,Free Networking Event In NYC,* You will not be able to sign up at the venue.,America/New_York,2022-01-13T18:30:00,2022-01-13T21:30:00,To Be Announced,New York,NY,10022,40.7127753,-74.0059728
49,False,12448110053.0,57975663.0,146584912419.0,business,New York Tech Career Fair:Exclusive Tech Hiring Event-New Tickets Available,Tech Career Fair focus on helping companies achieve their diversity and inclusivity initiative with more diverse non-traditional candidates,America/New_York,2021-12-17T13:00:00,2021-12-17T16:00:00,TBD,New York,NY,10119,40.7127753,-74.0059728
50,False,26000946435.0,58816277.0,150405881039.0,business,Blockchain Tech Summit,"Blockchain Tech Summit is the world’s most exclusive event featuring hundreds of entrepreneurs, investors, pioneers, and creatives together.",America/New_York,2022-09-27T10:00:00,2022-09-27T12:00:00,11 Times Square,New York,NY,10036,40.7568083,-73.98987500000001
51,False,32954921887.0,58779833.0,150304527889.0,business,Final Cut Pro and Video Editing Free Workshop,Level Up!,America/New_York,2021-04-14T18:30:00,2022-04-13T19:30:00,300 Broadway,New York,NY,10001,40.7149697,-74.00516209999999
52,False,25520671883.0,63772949.0,172457935327.0,business,CANNABIS COLLOQUIA - Global Hemp Updates - New York City,"An Exponential Deep Dive Into Global Hemp - Trends, Developments & Opportunities - Within New York.",America/New_York,2021-12-01T15:00:00,2021-12-01T19:00:00,ONLINE,New York City,NY,10007,40.7100647,-74.0119758
53,False,9879419208.0,46624087.0,91574089567.0,business,"Jan 10  - NY's  Biggest Business, Tech & Entrepreneur Networking Affair","August 9th  - NY's  Biggest Business, Tech & Entrepreneur Networking Affair",America/New_York,2022-01-10T18:30:00,2022-01-10T21:30:00,71 W 35th St,New York,NY,10018,40.7503922,-73.9868091
54,False,32954921887.0,59242821.0,152216799545.0,business,Time Management – Maximizing Your Productivity Free Workshop,Level Up!,America/New_York,2021-04-28T19:00:00,2022-04-27T20:00:00,300 Broadway,New York,NY,10001,40.7149697,-74.00516209999999
55,False,10948673962.0,59862547.0,154574599789.0,business,VETCON 2021,"Join us for the Veterans in Economic Transition Conference this November in Albany, New York!",America/New_York,2021-11-30T12:00:00,2021-12-01T15:00:00,660 Albany Shaker Rd,Albany,NY,12211,42.7282053,-73.79890319999998
56,False,9879419208.0,63328914.0,170505123414.0,business,"New York Trading, Finance & Banking - Professional Networking Affair","New York Trading, Finance & Banking - Summer Professional Networking Affair",America/New_York,2021-11-30T18:30:00,2021-11-30T21:00:00,1412 Broadway,New York,NY,10018,40.753615,-73.9865612
57,False,32954921887.0,58902121.0,150841311423.0,business,How To Write a Business Plan Free Workshop,Level Up!,America/New_York,2021-04-18T19:00:00,2022-04-17T20:00:00,300 Broadway,New York,NY,10001,40.7149697,-74.00516209999999
58,False,32954921887.0,58709997.0,150028658757.0,business,Build Your Business & Brand Through Blogging Free Workshop,Level Up!,America/New_York,2021-04-12T19:00:00,2022-04-11T20:00:00,300 Broadway,New York,NY,10001,40.7149697,-74.00516209999999
59,False,32954921887.0,58464083.0,148909623693.0,business,Free Communication Masterclass: Understanding Audience,Level Up!,America/New_York,2021-04-04T18:00:00,2022-04-03T19:00:00,300 Broadway,New York,NY,10001,40.7149697,-74.00516209999999
60,False,3218442490.0,61932381.0,163076453061.0,fashion,Syracuse Wedding Bridal Show at NYS Fairgrounds,Bringing the best local wedding professionals together with engaged couples to make wedding planning fun and easy!,America/New_York,2022-01-23T12:00:00,2022-01-23T15:30:00,581 State Fair Boulevard,Syracuse,NY,13209,43.074131,-76.2217178
61,False,33696480715.0,61673399.0,161815994997.0,fashion,SOLED OUT TUESDAY - SNEAKERHEAD COMEDY SHOW,"Soled Out Tuesday is a monthly comedy show every last Tuesday of the month, starting at 8PM at The Comedy Shop in Greenwich Village.",America/New_York,2021-07-27T20:00:00,2022-06-28T22:00:00,167 Bleecker Street,New York,NY,10012,40.72878980000001,-74.00014709999999
62,False,28434919813.0,64593309.0,176506223867.0,fashion,LonglivetheRunway SS21 NYFW Casting Call,"Model Casting Call
Paid show! Based on Experience!
Show Date: February 
Dress Code: All Black",America/New_York,2022-01-30T12:00:00,2022-01-30T16:00:00,TBA,New York,NY,10011,40.7373316,-73.99748799999999
63,False,26851390159.0,59706927.0,154000767441.0,fashion,New York City Wedding Expo,"The New York City Wedding Expo at Metropolitan Pavilion 125 W 18th St, New York, NY 10011",America/New_York,2022-01-09T12:00:00,2022-01-09T16:00:00,125 W 18th Street,New York,NY,10011,40.7406703,-73.9959828
64,False,31823807123.0,64028849.0,173730501607.0,fashion,PRETTY BAD & BOUJEE - CITY VIBEZ,PRETTY BAD & BOUJEE,America/New_York,2021-10-01T23:00:00,2022-04-23T04:00:00,440 9th Avenue,New York,NY,10001,40.7538231,-73.99573149999999
65,False,30689019830.0,67175729.0,189707729927.0,fashion,Centennial Legacy & The Garden of Friends,"A Celebration of the Life, Love and Art of Judith and Gerson Leiber
Timed tickets required for entry into the museum.",America/New_York,2021-10-13T13:00:00,2022-01-30T15:20:00,446 Old Stone Highway,East Hampton,NY,11937,41.004376,-72.1327684
66,False,12990740059.0,68973699.0,195978475897.0,fashion,BELLA Magazine's Arts + Culture Issue Cover Party featuring Misty Copeland,Join us in celebrating the arts! This event features Misty Copeland and special guests Anne Geddes+ Joelle Garguilo.,America/New_York,2021-12-02T19:00:00,2021-12-02T21:00:00,34 West 27th Street,New York,NY,10001,40.7449318,-73.9900633
67,False,34382616277.0,63116945.0,169481681271.0,fashion,The Dimensional Blonde,"Dimensional Blonding recipe for the perfectly lived in, laid back blonde.",America/New_York,2021-11-28T10:00:00,2021-11-28T14:00:00,531 North Greenbush Road,Rensselaer,NY,12144,42.6505297,-73.6951453
68,False,33783225709.0,64763319.0,177417589787.0,fashion,FASHIONS OF TOMORROW Fashion Show Fundraiser,A FUNDRAISING EVENT CELEBRATING DESIGNERS AND MODELS.  ALL LOOKS CAN BE PURCHASED AFTER THE SHOW. VENDOR  FASHION  ARE FOR SALE TOO!,America/New_York,2021-12-10T18:30:00,2021-12-10T21:00:00,71 Columbus Avenue,Tuckahoe,NY,10707,40.9526401,-73.8258704
69,False,9992836611.0,63330474.0,83777838771.0,fashion,New York  FASHION WEEK AUDITION AND RUN WAY BOOTCAMP,male and female kids and adults ages 4-50 we are casting for numerous of fashion shows WORLD WIDE,America/New_York,2020-02-07T15:00:00,2022-09-10T18:00:00,Tba,New York,NY,10001,40.7526594,-73.9935627
70,False,9569825114.0,51862540.0,63912042640.0,fashion,SCOUT Child Models 4-15 to Discover and Recruit Aspiring Child Models,"Scout to Discover and Recruit Aspiring, Potential Child Models between 4-15 years old at the 2019 KIDS FASHION DEMOCRACY Summer Show in NYC.
75 - Child Models - 4-8 Year Old Model Category
75 - Child Models - 9-15 Year Old Model Category
Modeling agencies, advertising agencies, production companies, photographers or individuals looking to hire child models for particular projects can view and interact with the Parents/Legal Guardians of two age categories of child models - 4-8-Year-Old Models, and 9-15-Year-Old Models.
Attendees at our ""KIDS Fashion Democracy Show in NYC"" are allowed to talk, engage and network with all the Parents/Legal Guardians of the child models participating in the show. ""PLEASE NOTE: Show models under 18 years of age can only be communicated with through their Parent or Legal Guardian in attendance"".
SHOW DATE: SUNDAY – JULY 11, 2021SHOWTIME: 11:30AM-6PM
VIEW SHOW SCHEDULE
http://www.kidsfashiondemocracy.com/show-schedule/

BUY SHOW SEATS
http://www.kidsfashiondemocracy.com/buy-show-seats/

2020 KIDS FASHION DEMOCRACY Summer Show in NYC
Visit the show's websitewww.Modeloftheyearcompetition.com 
VISIT OUR SOCIAL MEDIA PAGES:
YouTube Channel: www.Youtube.com/user/eventlinks
Instagram: www.instagram.com/plitzsfashionmarketing
Facebook: http://www.facebook.com/PLITZS",America/New_York,2022-01-08T11:30:00,2022-01-08T16:00:00,725 Tenth Avenue,NEW YORK,NY,10019,40.7644318,-73.9923756
71,False,4469709473.0,61929875.0,163067841303.0,fashion,Rochester Wedding Bridal Show at Holiday Inn Downtown,Bringing the best local wedding professionals together with engaged couples to make wedding planning fun and easy!,America/New_York,2022-01-09T12:00:00,2022-01-09T15:00:00,70 State Street,Rochester,NY,14614,43.1567715,-77.61279809999999
72,False,24655176530.0,67843759.0,192091670357.0,fashion,Holiday Japanese Handcraft Show 12/5 @East Village,You can meet Japanese-inspired artists at our event. And you can find very special gifts for your friends and family!,America/New_York,2021-12-05T12:00:00,2021-12-05T18:00:00,91 East 3rd Street,New York,NY,10003,40.724831,-73.9877549
73,False,15752128410.0,62424167.0,165818456467.0,fashion,Bronx Fashion Week An All Inclusive Fashion Celebration,Join Bronx Fashion Week in an all Inclusive Diverse Fashion Celebration of Unity at the Mall at Bay Plaza.,America/New_York,2022-05-07T15:00:00,2022-05-07T17:00:00,200 Baychester Avenue,Bronx,NY,10475,40.864345,-73.82752419999997
74,False,7317483319.0,51461864.0,111075716458.0,fashion,Tresse Talk Live! Natural Hair Styling Tips & Tricks during COVID-19,Get FREE natural hair tips from TresseNoire's natural hair style team! Look Video chat ready during the pandemic ;),America/New_York,2020-07-16T19:30:00,2022-04-05T13:30:00,123 Curly Girl Lane,Anytown,NY,10001,40.75368539999999,-73.9991637
75,False,35649138303.0,66239789.0,185124732057.0,fashion,Smile with vVardis,Smile with  vVardis,America/New_York,2021-10-07T13:00:00,2021-12-16T18:00:00,191 Lafayette Street,New York,NY,10013,40.7208164,-73.9981674
76,False,35220720223.0,66011319.0,183870269927.0,fashion,Hair Awards USA,A rare moment to interface with the greats of American hair.,America/New_York,2021-12-05T18:30:00,2021-12-06T02:00:00,150 West 30th Street,New York,NY,10001,40.7480524,-73.9919371
77,False,5373238209.0,68771959.0,195337849767.0,fashion,HFW: Art of Style Networking Event,HFW: Art of Style Networking Event,America/New_York,2021-12-11T18:00:00,2021-12-11T21:00:00,2296 Frederick Douglass Boulevard,New York,NY,10027,40.8090711,-73.9515102
78,False,13701685080.0,56381763.0,137349904261.0,fashion,Sip Shop Eat IRL Pop-UP,"All the best in food, style, and drinks collide at the immersive and interactive  Pop-Up spotlighting New York's emerging small businesses.",America/New_York,2021-04-24T12:00:00,2021-12-19T18:00:00,76 Verona Street,Brooklyn,NY,11231,40.6796575,-74.0082423
79,False,35792978183.0,66573079.0,187056159007.0,fashion,Devanté’s Dashing 30’s Masquerade Ball,We will be celebrating Devanté  as he will officially be stepping thru the threshold of his 30’s in the most Dashing Way.,America/New_York,2021-12-19T21:00:00,2021-12-20T02:00:00,356 Marcus Garvey Blvd,Brooklyn,NY,11221,40.6848474,-73.9387213
80,False,31423824709.0,59289563.0,152394836057.0,science-and-tech,Park Preserve Hike,Take a hike guided by an educator around the Park Preserve on Jones Beach.,America/New_York,2021-05-03T13:30:00,2021-12-23T15:00:00,West End 2,Wantagh,NY,11793,40.5850265,-73.5590447
81,False,20002618011.0,40242667.0,191318257057.0,science-and-tech,DIY Powerbanks with Hackett,Learn how to harness battery technology to build your own energy grid with Tech Resident Hackett.,America/New_York,2021-12-04T13:00:00,2021-12-04T16:00:00,133-135 Imlay St,Brooklyn,NY,11231,40.6801698,-74.0104709
82,False,32954921887.0,58878957.0,150730122855.0,science-and-tech,Free Star Gazing Workshop,Reach for the stars!,America/New_York,2021-04-17T20:00:00,2022-04-16T21:00:00,300 Broadway,New York,NY,10001,40.7149697,-74.00516209999999
83,False,7052835663.0,53775447.0,124692170639.0,science-and-tech,Disruptive Innovation Summit - FinTech and Media (Live),"Disruptive Innovation Summit - Media, Consumer and FinTech",America/New_York,2021-12-16T09:00:00,2021-12-16T22:00:00,,,,,,
84,False,20002618011.0,40242667.0,191782706237.0,science-and-tech,Normalizing Crime with Hackett,"Join Tech Resident Hackett as he explores the notion of normalizing crime through the subscription-based ""Crimekits.""",America/New_York,2021-12-11T13:00:00,2021-12-11T16:00:00,133-135 Imlay St,Brooklyn,NY,11231,40.6801698,-74.0104709
85,False,17552267792.0,62444453.0,165916467621.0,science-and-tech,Webinar - An Introduction to ITIL®4 Managing Professional Transition,"This webinar is a walk-through of the process to run successful IT-enabled teams, services, and workflows.",America/New_York,2021-12-02T13:00:00,2021-12-02T13:40:00,252 West 37th Street,New York,NY,10018,40.7535628,-73.9914967
86,False,17552267792.0,65025609.0,178777246557.0,science-and-tech,How to Migrate Workloads to the Google Cloud,This insightful session is ideal for professionals who wish to get started with Google Cloud and make the most of their cloud deployment.,America/New_York,2021-12-09T13:00:00,2021-12-09T13:40:00,252 West 37th Street,New York,NY,10018,40.7535628,-73.9914967
87,False,17552267792.0,62445389.0,165923145595.0,science-and-tech,Webinar - Learn the A to Z of IT Fundamentals with CompTIA A+ Certification,Understand the fundamentals of computer hardware and software and keep your organization’s network defenders up to date with the latest IT.,America/New_York,2021-12-14T13:00:00,2021-12-14T13:40:00,252 West 37th Street,New York,NY,10018,40.7535628,-73.9914967
88,False,8046318702.0,62366897.0,165425266425.0,science-and-tech,2021 NERIC Regional Technology Awareness Day,Connect with colleagues at NERIC's Annual Tech A-Day!,America/New_York,2021-12-03T08:00:00,2021-12-03T14:00:00,55 Eagle Street,Albany,NY,12207,42.64987720000001,-73.7560941
89,False,18784171172.0,68743669.0,195277489227.0,science-and-tech,"[PUB-NY] - Edição Dezembro/2021 - Renan V. H. de Carvalho, PhD",[PUB-NY] - Edição Dezembro/2021,America/New_York,2021-12-10T17:30:00,2021-12-10T20:00:00,225 East 41st Street,New York,NY,10017,40.7497364,-73.9736614
90,False,17552267792.0,62444297.0,165915189799.0,science-and-tech,Webinar - Validate your Skills with Cisco DevNet Certification for DevOps,"Learn to develop and maintain applications built on Cisco platforms, the latest DevOps practices, and much more.",America/New_York,2021-11-30T13:00:00,2021-11-30T13:40:00,252 West 37th Street,New York,NY,10018,40.7535628,-73.9914967
91,False,17552267792.0,64581079.0,176435251587.0,science-and-tech,Free Webinar- Accelerate your AI/ML journey with Red Hat.,Get clear picture of  how Red Hat can be used to scale up your business’s profit margin through artificial intelligence and machine learning,America/New_York,2021-12-16T13:00:00,2021-12-16T13:40:00,252 West 37th Street,New York,NY,10018,40.7535628,-73.9914967
92,False,17552267792.0,61698599.0,161940383045.0,science-and-tech,Webinar- An official introduction to the core concepts of cloud and AWS,Instructor-led Virtual Master Class that is designed to provide an official introduction of AWS cloud computing concepts to business leaders,America/New_York,2021-12-07T12:00:00,2021-12-07T14:00:00,252 West 37th Street,New York,NY,10018,40.7535628,-73.9914967
93,False,31423824709.0,61527015.0,161123746463.0,science-and-tech,Power of Wind,Wind power is strong enough to move huge turbines and make clean energy that powers your home!,America/New_York,2021-08-04T10:30:00,2021-11-28T15:00:00,West End 2,Wantagh,NY,11793,40.5850265,-73.5590447
94,False,7052835663.0,52514771.0,95025238045.0,science-and-tech,Disruptive Innovation Summit - Health and BioTech (VIP Reception),Disruptive Innovation Summit - Health and BioTech (Onsite Conference / Reception),America/New_York,2021-12-15T17:00:00,2021-12-15T21:00:00,,,,,,
95,False,7793159909.0,61568701.0,103034673482.0,science-and-tech,Teen Tech Time: Teens help adults with computer questions: One on One Tech,Join us on IN PERSON from 10am-12pm  Saturdays for our Teen Tech Program.,America/New_York,2020-04-25T10:00:00,2021-12-18T12:00:00,159 Main Street,East Hampton,NY,11937,40.957973,-72.19140600000003
96,False,34228309639.0,62787273.0,167127700451.0,science-and-tech,WebJam NYC,WebJam NYC is the in-person New York coding meetup for high schoolers interested in building web applications and games.,America/New_York,2022-01-15T18:00:00,2022-01-16T16:00:00,274 36th Street,Brooklyn,NY,11232,40.6558874,-74.0072546
97,False,31423824709.0,61525743.0,161116378425.0,science-and-tech,Creature Feature,Jones Beach Energy & Nature Center is home to several educational animals—come and meet them!,America/New_York,2021-07-01T10:30:00,2021-12-26T14:30:00,West End 2,Wantagh,NY,11793,40.5850265,-73.5590447
98,False,26152381109.0,36306713.0,192032794257.0,science-and-tech,Thinkful Webinar || What Tech Career Is Right For Me?,Considering a career change into tech? Explore what role might be a great fit for you and learn how to successfully break into your new dream job.,America/New_York,2021-12-01T12:00:00,2021-12-01T13:30:00,Online,Buffalo,NY,,42.88644679999999,-78.8783689
99,False,9574877233.0,66892689.0,188723285427.0,science-and-tech,A Day in the Life of the Iceman,Come join us to help unravel some of the Iceman’s deepest mysteries!,America/New_York,2021-12-11T10:00:00,2021-12-11T12:00:00,334 Main Street (25A),Cold Spring Harbor,NY,11724,40.872956,-73.4515315
100,False,15022696883.0,60232111.0,156363927717.0,sports-and-fitness,Try Curling at the Ardsley Curling Club Open House,"Try Curling!
You've seen it on TV, now try it for yourself! Experience the Olympic sport of curling at Ardsley Curling Club's Open House.",America/New_York,2021-10-03T13:00:00,2022-03-20T17:15:00,100 North Mountain Drive,Dobbs Ferry,NY,10503,41.0231321,-73.85679319999997
101,False,14901636350.0,62539505.0,166390595751.0,sports-and-fitness,SCC 2nd Annual Thanksgiving Turkey Shootout to Benefit LOVE HOLDS LIFE,WELCOME and thank you for your interest in our 2nd annual Middle School (6th-8th Grade) Flag Football Thanksgiving Turkey Shootout,America/New_York,2021-11-26T09:00:00,2021-11-26T14:00:00,60 N SALEM RD,Cross River,NY,10518,41.2734297,-73.6108462
102,False,9089817417.0,71751899.0,85199027585.0,sports-and-fitness,Dance N Drip @EmpressCece,"Facebook: Empress 'CC'
Instagram: @EmpressCece
Twitter: @EmpressC3C3
Youtube: Empress Cece",America/New_York,2019-12-09T19:30:00,2021-12-20T20:30:00,753 Flatbush Avenue,Brooklyn,NY,11226,40.654506,-73.9593595
103,False,16851187343.0,61524257.0,161111339353.0,sports-and-fitness,"Muddy Princess Buffalo, NY",Muddy Princess is an outdoor 5km (3.1 mile) obstacle mud run for women - and women ONLY!,America/New_York,2022-06-26T08:00:00,2022-06-26T12:15:00,3323 Harloff Road,Batavia,NY,14020,43.0206063,-78.2625648
104,False,8470818545.0,45720883.0,18690201897.0,sports-and-fitness,Free Intro class - Aikido 101 at Bond Street Dojo,Intro to Aikido class for those interested in starting Aikido in the NYC area as we return to training together,America/New_York,2015-09-19T12:00:00,2022-03-26T11:00:00,161 E 106th St,New York,NY,10029,40.7921178,-73.94535109999998
105,False,19155243623.0,63710099.0,172208729947.0,sports-and-fitness,Amp'd,Chelsea Piers is proud to continue our partnership with UnitedHealthcare by providing monthly fitness classes for only $5.,America/New_York,2021-10-23T09:00:00,2021-12-11T09:45:00,60 Chelsea Piers,New York,NY,10011,40.746645,-74.01005700000002
106,False,18094224115.0,59454781.0,153047474115.0,sports-and-fitness,bodyART at Industry City,The bodyART method is a physical therapy based approach to movement training or PTBT.,America/New_York,2021-05-03T17:30:00,2021-12-06T18:30:00,238 36th Street,Brooklyn,NY,11232,40.6561822,-74.008001
107,False,34046421271.0,62240315.0,164791791685.0,sports-and-fitness,Mariano Rivera Meet & Greet,Mariano Rivera Holiday Meet & Greet,America/New_York,2021-12-18T10:00:00,2021-12-18T12:00:00,13 Railroad Ave,Middletown,NY,10940,41.4483773,-74.4173966
108,False,4045343561.0,46956641.0,87451627171.0,sports-and-fitness,Second Saturdays @ Highbridge  Bike Park,Build Mountain Bike  trails and then ride them during NYCMTB's monthly welcome days at Highbridge park in Manhattan.,America/New_York,2020-01-11T10:00:00,2021-12-11T15:00:00,131 Ft George ave,New York,NY,10040,40.8577221,-73.92698139999999
109,False,18383977288.0,54420327.0,127667000435.0,sports-and-fitness,SKATEROBICS BEGINNER-: SATURDAY MORNING 10:00 AM  EDT BEGINNERS,This class is for those who've never skated or are returning after years of not skating and want to learn the basic fundamentals of skating.,America/New_York,2020-11-07T10:00:00,2021-12-18T11:30:00,215-10 Hempstead Avenue,Queens,NY,11429,40.715245,-73.74368009999999
110,False,32954921887.0,58805591.0,150373558361.0,sports-and-fitness,Free Basic Strength-Conditioning Workout to Recharge Your Day,Get Fit!,America/New_York,2021-04-15T18:30:00,2022-04-14T19:30:00,300 Broadway,New York,NY,10001,40.7149697,-74.00516209999999
111,False,32828229203.0,58059425.0,147006156371.0,sports-and-fitness,Adult 21+ Roller Skating,Adults on wheels.  Roller skating for Ages 21+ only,America/New_York,2021-03-31T18:00:00,2022-06-29T20:00:00,102 3rd Street,Greenport,NY,11944,41.1011186,-72.36234069999999
112,False,19156358372.0,63705259.0,172188028027.0,sports-and-fitness,Adult Skating,Chelsea Piers is proud to continue our partnership with UnitedHealthcare by providing monthly fitness classes for only $5.,America/New_York,2021-09-25T15:20:00,2021-12-12T15:50:00,61 Chelsea Piers,New York,NY,10011,40.7474167,-74.0082284
113,False,18383977288.0,52896773.0,119703788253.0,sports-and-fitness,SKATEROBICS BEGINNER & INTERMEDIATE: SATURDAY  AFTERNOON 12:00 PM,This class is for beginner and intermediate skaters who want to learn the basic fundamentals of roller skating and l how to dance on skates.,America/New_York,2020-10-03T12:00:00,2022-01-29T14:00:00,215-10 Hempstead Avenue,Queens Village,NY,11429,40.715245,-73.74368009999999
114,False,34042181801.0,62230633.0,164715844525.0,sports-and-fitness,SKATING LESSONS WITH BLUE SKATE,SKATING LESSONS WITH BLUE SKATE,America/New_York,2021-07-25T12:00:00,2021-12-26T16:00:00,314 Scholes St,Brooklyn,NY,11206,40.6906987,-73.9262909
115,False,3910770095.0,59739561.0,154097119633.0,sports-and-fitness,4th  Annual Christmas & Kilos Weightlifting Meet,Come join us for our 4th Annual Holiday Christmas & Kilos Weightlifting meet!,America/New_York,2021-12-04T08:00:00,2021-12-04T14:00:00,315 Genesee Street,Auburn,NY,13021,42.92247979999999,-76.5875193
116,False,33861888521.0,61769289.0,162313308475.0,sports-and-fitness,Fall Functional Fitness,Fall Functional Fitness  is a 60 minute full body strength workout. Participants will learn how to lift for their intended strength goals.,America/New_York,2021-07-10T11:00:00,2021-12-18T12:00:00,1501 Fulton Street,Brooklyn,NY,11216,40.680097,-73.9412688
117,False,32954921887.0,58610891.0,149584211403.0,sports-and-fitness,Workday Recharge! Free Stretch and Stress Technique Workshop,Namaste!,America/New_York,2021-04-09T18:00:00,2022-04-08T19:00:00,300 Broadway,New York,NY,10001,40.7149697,-74.00516209999999
118,False,34149562239.0,62526443.0,166332351541.0,sports-and-fitness,Tone & Fit,Join Coach Tavi & Coach Reality for a HIT workout!!,America/New_York,2021-08-12T19:00:00,2021-12-30T20:00:00,959 Flatbush,Brooklyn,NY,11226,40.648126,-73.95783
119,False,31063093141.0,58848055.0,150609074797.0,sports-and-fitness,Outdoor Bootcamp X Grind House,Let's take it outside for Outdoor Bootcamp with Danielle at Bushwick Inlet Park!,America/New_York,2021-04-16T07:30:00,2021-12-31T08:30:00,Kent Avenue,Brooklyn,NY,11249,40.7223295,-73.9613074
120,False,33092051119.0,61742685.0,162195048757.0,travel-and-outdoor,"Become A Home-Based Travel Agent (Buffalo, NY) No Experience Necessary",IT IS TIME TO CASH IN ON YOUR DREAMS!,America/New_York,2021-07-08T20:00:00,2021-12-30T21:00:00,6461 Transit Road,Lancaster,NY,14086,42.93647,-78.6961212
121,False,11795946643.0,52847183.0,119739968469.0,travel-and-outdoor,NYC sightseeing Boat Tour,"Enjoy a boat tour during sunset and see the Statue of Liberty from up close. Cruise past Ellis Island and the Brooklyn Bridge, and take in",America/New_York,2020-09-05T14:30:00,2021-12-26T15:30:00,299 South Street,New York,NY,10016,40.70968,-73.98612930000002
122,False,19970059687.0,62349853.0,165317341619.0,travel-and-outdoor,Birdwalks with New York City Audubon,Van Cortlandt Park Alliance and New York City Audubon invite you to join us for weekly birdwalks this spring.,America/New_York,2021-09-04T09:00:00,2021-11-27T10:30:00,Broadway and West 242nd Street,The Bronx,NY,10463,40.8894634,-73.8983574
123,False,13416052551.0,51455520.0,111012324852.0,travel-and-outdoor,One Team Scavenger Hunt Niagara Falls,"Puzzling Adventures™ are a cross between a scavenger hunt, an adventure race, and an informative self-guided tour.",America/Toronto,2020-06-25T10:00:00,2022-06-16T22:00:00,40 Rainbow Blvd,Niagara Falls,NY,14303,43.0877473,-79.06299609999999
124,False,13416052551.0,51391062.0,110455906590.0,travel-and-outdoor,One Team Scavenger Hunt Central Park NYC,"Puzzling Adventures™ are a cross between a scavenger hunt, an adventure race, and an informative self-guided tour.",America/New_York,2020-06-21T10:00:00,2022-06-12T22:00:00,200 Central Park West New York,New York City,NY,10024,40.7859464,-73.97418739999999
125,False,13416052551.0,51391096.0,110456680906.0,travel-and-outdoor,One Team Scavenger Hunt Albany,"Puzzling Adventures™ are a cross between a scavenger hunt, an adventure race, and an informative self-guided tour.",America/New_York,2020-06-21T10:00:00,2022-06-12T22:00:00,100 Beaver St,Albany,NY,12207,42.6492205,-73.7560598
126,False,31187644943.0,68090199.0,192809758177.0,travel-and-outdoor,Skål New York Program: Holiday Gathering,Skål New York Program: Holiday Gathering,America/New_York,2021-12-16T12:00:00,2021-12-16T14:00:00,40 West 53rd Street,New York,NY,10019,40.7610935,-73.9777823
127,False,13416052551.0,51475212.0,111204293034.0,travel-and-outdoor,One Team Scavenger Hunt Lower Manhattan New York,"Puzzling Adventures™ are a cross between a scavenger hunt, an adventure race, and an informative self-guided tour.",America/New_York,2020-06-26T10:00:00,2022-06-16T22:00:00,1 Bowling Green,New York City,NY,10004,40.7043347,-74.0138948
128,False,17489725036.0,58022971.0,146832111799.0,travel-and-outdoor,NYC City Lights Cruise,Board our City Lights Cruise for the stunning Manhattan skyline as the NYC skyscrapers light up the city!,America/New_York,2021-03-20T19:00:00,2022-12-31T22:00:00,Pier 36,New York,NY,10002,40.7096569,-73.98627789999999
129,False,13416052551.0,51458406.0,111036116012.0,travel-and-outdoor,One Team Scavenger Hunt Syracuse,"Puzzling Adventures™ are a cross between a scavenger hunt, an adventure race, and an informative self-guided tour.",America/New_York,2020-06-25T10:00:00,2022-06-16T22:00:00,300 E Fayette Street,Syracuse,NY,13202,43.0484318,-76.1487557
130,False,32295320775.0,60393689.0,156979924179.0,travel-and-outdoor,"Become  A Home-Based Travel Agent (New York City, NY)",IT IS TIME TO CASH IN ON YOUR DREAMS,America/New_York,2021-05-27T20:00:00,2023-06-01T21:00:00,481 8th Avenue,New York,NY,10001,40.75266809999999,-73.99356519999999
131,False,13416052551.0,51379880.0,110344565566.0,travel-and-outdoor,One Team Scavenger Hunt Rochester,"Puzzling Adventures™ are a cross between a scavenger hunt, an adventure race, and an informative self-guided tour.",America/New_York,2020-06-20T10:00:00,2022-06-12T22:00:00,39 Stone St,Rochester,NY,14604,43.1560698,-77.6078386
132,False,17489725036.0,58023357.0,146833534053.0,travel-and-outdoor,NYC Sunset Cruise,"Witness how NYC transitions itself from the busy hours to the settling evening, while snapping photos of the precious Manhattan Skyline.",America/New_York,2021-03-20T19:00:00,2022-12-31T22:00:00,Pier 36,New York,NY,10002,40.7096569,-73.98627789999999
133,False,30865942681.0,55476901.0,133146114613.0,travel-and-outdoor,Niagara River,Join us on our birding venture along the Niagara River on the US side of the Border. Our focus will be on waterfowl and gulls.,America/New_York,2021-11-28T09:00:00,2021-11-28T17:00:00,Scott St.,Youngstown,NY,14174,43.262358,-79.060631
134,False,3310145952.0,38264333.0,17626786192.0,travel-and-outdoor,Amazing Scavenger Hunt Adventure - New York-Midtown,Amazing Scavenger Hunt Adventure - New York-Midtown,America/New_York,2015-07-02T07:00:00,2022-02-15T19:00:00,1501 Broadway,Manhattan,NY,10036,40.757092,-73.98648200000002
135,False,13416052551.0,51414960.0,110705986586.0,travel-and-outdoor,One Team Scavenger Hunt Buffalo,"Puzzling Adventures™ are a cross between a scavenger hunt, an adventure race, and an informative self-guided tour.",America/New_York,2020-06-23T10:00:00,2022-06-14T22:00:00,221 Pearl St,Buffalo,NY,14202,42.8852586,-78.875361
136,False,32295320775.0,61706973.0,161999925137.0,travel-and-outdoor,"Become  A Home-Based Travel Agent (Queens, NY)",IT IS TIME TO CASH IN ON YOUR DREAMS,America/New_York,2021-07-03T14:00:00,2022-06-18T15:00:00,183-15 Horace Harding Expressway,Queens,NY,11365,40.7402662,-73.7908532
137,False,33092051119.0,59469077.0,153114366191.0,travel-and-outdoor,"HOW TO BE A HOME BASED TRAVEL AGENT (NEW YORK, NEW YORK)",IT IS TIME TO CASH IN ON YOUR DREAMS!,America/New_York,2021-05-06T20:00:00,2022-07-31T17:00:00,237 West 54th Street,New York,NY,10019,40.76449969999999,-73.98311509999999
138,False,73457629.0,63323690.0,170480664256.0,travel-and-outdoor,Tour of The Watermill Center,Join us for an intimate guided tour of The Watermill Center and our expansive art collection!,America/New_York,2021-10-08T14:30:00,2021-12-17T15:30:00,39 Watermill Towd Rd.,Water Mill,NY,11976,40.917605,-72.366407
139,False,11795946643.0,56823983.0,140026487995.0,travel-and-outdoor,The Edge Observation Deck at Hudson Yards,"The highest outdoor sky deck in the Western Hemisphere located in the center on Manhattan. See the Empire State building, Statue of Liberty",America/New_York,2021-02-04T16:30:00,2021-12-31T19:30:00,30 Hudson Yards ,New York,NY,10001,40.7541644,-74.0009082
140,False,15465851401.0,58568315.0,149446333005.0,spirituality,Sunday Service,0,America/New_York,2021-04-11T11:00:00,2021-12-26T13:00:00,85 East 165th Street,Bronx,NY,10452,40.8316526,-73.92213479999998
141,False,32214643963.0,59637625.0,153715289569.0,spirituality,Servicio en Persona 2da reunión - 1pm,"NOSOTROS CREEMOS EN AMAR A DIOS, AMAR A OTROS, SERVIR A DIOS, SERVIR A OTROS",America/New_York,2021-05-09T13:00:00,2021-12-26T14:30:00,11 Harman Street,Brooklyn,NY,11221,40.69391290000001,-73.92490630000002
142,False,8597319899.0,61964955.0,163203960439.0,spirituality,"One Day Meditation Retreat UWS, Saturday","Come join our one day retreat. The program includes Qigong, sitting, silent walking meditation, and Kong-an Interview",America/New_York,2021-07-17T09:00:00,2022-02-19T15:00:00,42 W 96th st,New York,NY,10025,40.7920442,-73.9662563
143,False,30589874638.0,51965810.0,114172629408.0,spirituality,Calvary Prayer Services,"Calvary In-Person Prayer Services.

We Belong Together.",America/New_York,2020-07-24T19:30:00,2021-12-24T21:00:00,10207 Rockaway Boulevard,Queens,NY,11417,40.67998559999999,-73.8376569
144,False,26912104203.0,68380469.0,194092575117.0,spirituality,Chanukah Spectacular,Chanukah celebration for the whole family!,America/New_York,2021-11-28T15:30:00,2021-11-28T17:00:00,327-392 South Oyster Bay Road,Plainview,NY,11803,40.7851046,-73.5020491
145,False,11848485861.0,62322995.0,165170197507.0,spirituality,Shaharit In Person,Register to join us in person for morning minyan.,America/New_York,2021-08-09T08:00:00,2022-01-31T08:45:00,257 West 88th Street,New York,NY,10024,40.7901031,-73.9761709
146,False,30573212816.0,51452478.0,110981380296.0,spirituality,Sunday Worship,"""I was glad when they said unto me, 'Let us go unto the House of the Lord'."" Come join us for Sunday Worship.",America/New_York,2020-07-05T10:00:00,2021-12-26T11:00:00,12 Franklin Avenue,Port Washington,NY,11050,40.8286293,-73.68932869999999
147,False,31780796139.0,64056279.0,173855214627.0,spirituality,For the Glory of God Prayer & Healing Service with Fr Liam McDonald,For the Glory of God Prayer & Healing Service,America/New_York,2021-09-24T18:00:00,2022-04-29T22:00:00,440 W Neck Rd,Huntington,NY,11743,40.9025662,-73.46949769999999
148,False,29264492455.0,60894531.0,158670047383.0,spirituality,Sasha Graham’s Spirited Away Psychic & Paranormal Night,"Gather with NYC’s premiere psychics, authors and tarotists for readings, craft cocktails, magical shopping, and paranormal fun.",America/New_York,2021-06-29T18:00:00,2021-12-28T21:00:00,86 34th Street,Brooklyn,NY,11232,40.65687119999999,-74.0060622
149,False,30589874638.0,51614550.0,112002221660.0,spirituality,Calvary Worship Services,"Calvary In-Person Worship Services.

We Belong Together.",America/New_York,2020-07-12T08:30:00,2021-12-19T11:30:00,10207 Rockaway Boulevard,Queens,NY,11417,40.67998559999999,-73.8376569
150,False,28564188403.0,62050253.0,163654911245.0,spirituality,Weekly Sabbath Worship at Hanson Place SDA Church,Please join us for our weekly worship sessions! We begin at 10:30 am with Sabbath School discussions; Divine Service begins at 11:30 am.,America/New_York,2021-07-24T10:30:00,2022-01-08T13:30:00,88 Hanson Pl,Brooklyn,NY,11217,40.6851925,-73.9739578
151,False,8553820520.0,65965639.0,183660301907.0,spirituality,Great Jewish Personalities | Rabbi Avi Heller & MJE East Tues Class 7PM,Take a deeper dive into Judaism's Greatest Thinkers! MJE East Classes for 20s and 30s NYC young professionals with Rabbi Avi Heller.,America/New_York,2021-10-05T19:00:00,2022-08-30T20:00:00,125 E 85th St,New York,NY,10028,40.7791484,-73.95634849999999
152,False,15883538889.0,62460335.0,120343626025.0,spirituality,Light of God International Miracle Center SUNDAY VICTORY SERVICE,"Light of God International Miracle Center is led by Prophetess Remi Ariyibi.  Come expecting powerful prayer, worship, praise and prophesy!",America/New_York,2020-10-04T10:00:00,2023-07-09T14:00:00,65 Colonial Avenue,Freeport,NY,11520,40.6698757,-73.5850621
153,False,8553820520.0,65964199.0,183656239757.0,spirituality,MJE West Putting the Holy in the Holidays Rabbi Mark Wildes + Dinner,"*Young Jewish Professionals 20s & 30s | Dinner & Wine
Join young Jewish professionals in their 20s and 30s  dinner. discussion.live music",America/New_York,2021-10-04T19:00:00,2022-08-01T21:00:00,131 West 86th Street,New York,NY,10024,40.787224,-73.97324800000001
154,False,17321200565.0,55901093.0,135070484455.0,spirituality,"TG NYC 2021 Sunday Service, 8:00 AM",We are excited about reopening our doors but we urge all to comply with all rules and regulations in relation to COVID-19,America/New_York,2021-01-03T08:00:00,2021-12-26T10:00:00,103-19 Merrick Blvd,Jamaica,NY,11433,40.7017967,-73.79022379999999
155,False,7727924435.0,68146989.0,193001020247.0,spirituality,COMEDY SHOW (Gospel),Gospel Comedy Show and DJs,America/New_York,2021-11-27T18:00:00,2021-11-27T22:00:00,4359 White Plains Road,Bronx,NY,10466,40.8972938,-73.8557336
156,False,34193457369.0,62612417.0,166750568439.0,spirituality,LAPC Partial Re-opening,In-Person Worship at LAPC: RSVP,America/Indiana/Vevay,2021-08-22T11:00:00,2021-12-26T12:30:00,85 South Oxford Street,Brooklyn,NY,11217,40.687207,-73.97340249999999
157,False,32214643963.0,59640091.0,153723143059.0,spirituality,HCC - In Person church Service 11am,Come join us on sunday for our in person church attendance @ 11 am at 11 harman st brooklyn NY,America/New_York,2021-05-16T11:00:00,2021-12-26T13:00:00,11 Harman Street,Brooklyn,NY,11221,40.69391290000001,-73.92490630000002
158,False,35872450623.0,66758559.0,187938377747.0,spirituality,The Encounter Conference,The Encounter Conference,America/New_York,2021-12-03T19:30:00,2021-12-04T17:00:00,75 Maiden Lane,New York,NY,10038,40.70760119999999,-74.0075658
159,False,35838403953.0,66614759.0,187353729047.0,spirituality,Pointe of Praise Worship Experience,Sunday Morning Worship In The Upper Room with Pastor Shevis C. Brown,America/New_York,2021-10-17T10:30:00,2021-12-19T12:30:00,243 Hurley Avenue,Kingston,NY,12401,41.9424445,-74.0360874
160,False,33522583899.0,62866349.0,168116736685.0,charity-and-causes,6th Annual Kringle Krawl for a Cause,Join us as we krawl down East Ave to raise money  for  Gates  addiction services. Get family & friends and have some Christmas cheer.,America/New_York,2021-12-11T13:00:00,2021-12-11T18:00:00,370 East Avenue,Rochester,NY,14604,43.1552665,-77.5945122
161,False,35600701603.0,65733059.0,182249341687.0,charity-and-causes,"HAITIANBEATZ 13TH ANNIVERSARY ""LE NOIR AFFAIRE""","HAITIANBEATZ 13TH ANNIVERSARY 'LE NOIR AFFAIRE': CELEBRATING ""LE JACOBINNOIR""",America/New_York,2021-12-11T20:30:00,2021-12-12T02:00:00,8325 Jericho Turnpike,Woodbury,NY,11797,40.81808059999999,-73.4652522
162,False,32303713113.0,54373879.0,127488965929.0,charity-and-causes,Volunteer at 9 Million Reasons  / Evangel Food Pantry,"We’re NYC’s largest, donation-based community food pantry. Please come join us to combat food insecurities in NYC!!!",America/New_York,2020-11-02T08:30:00,2021-12-18T12:45:00,39-21 Crescent St.,Long Island City,NY,11101,40.7542,-73.9371
163,False,36376504473.0,68180169.0,193131179557.0,charity-and-causes,2021 Bard Birthday Breakfast Benefit,"Join us for our nineteenth annual Bard Birthday Breakfast Benefit - a gathering of 
 New York City preservationists!",America/New_York,2021-12-16T08:00:00,2021-12-16T10:00:00,8 East 69th Street,New York,NY,10021,40.7700492,-73.9677821
164,False,13007842947.0,64949209.0,178346147127.0,charity-and-causes,Winter Gala,"The Detective Rafael Ramos Foundation will host its highly anticipated Winter Gala Fundraiser on Thursday, December 9, 2021.",America/New_York,2021-12-09T19:00:00,2021-12-10T00:00:00,26 Bridge Street,Brooklyn,NY,11201,40.7039628,-73.98500079999997
165,False,2454485968.0,69736399.0,198413840137.0,charity-and-causes,John Theissen Children's Foundation Holiday Gala-   30 Years of Giving!,"Our Holiday Gala, celebrating 30 years of giving.  We will have  lots of amazing raffles, giveaways, Live Auction and much more.",America/New_York,2021-12-02T18:30:00,2021-12-02T23:00:00,3232 Railroad Avenue,Wantagh,NY,11793,40.672459,-73.50994300000002
166,False,11034381746.0,68742459.0,195270688887.0,charity-and-causes,Three Village Historical Society Exhibit Admission + Registration,Book a guided tour and visit our two exhibits.,America/New_York,2021-10-21T16:30:00,2021-12-16T18:30:00,93 North Country Rd.,Setauket- East Setauket,NY,11733,40.9339363,-73.1177414
167,False,34118091475.0,62445263.0,165921667173.0,charity-and-causes,Social Emotional Coaching & Support for Kids,"We empower children to discover and better manage themselves through fun, safe and engaging activities like singing, dancing and games.",America/New_York,2021-08-23T15:00:00,2021-12-20T16:00:00,221 Heberton Avenue,Staten Island,NY,10302,40.6352159,-74.1322339
168,False,17952562376.0,67038709.0,189076371517.0,charity-and-causes,KICK ADDICTION EVENT 2021,"The 6TH Annual Kick Addiction Fundraiser in loving memory of Bradley A. Semon, will be on Sunday, December 12TH, 2021.",America/New_York,2021-12-12T10:00:00,2021-12-12T15:30:00,8 Orangetown Shopping Center,Orangeburg,NY,10962,41.0441023,-73.95362399999999
169,False,34407839613.0,63178921.0,169765351737.0,charity-and-causes,Musicians of Buffalo Christmas Event 2021,Christmas Event 2021,America/New_York,2021-12-15T19:00:00,2021-12-15T22:00:00,8166 Main Street,Buffalo,NY,14221,42.9658512,-78.69114789999999
170,False,36085954763.0,67291799.0,190066553177.0,charity-and-causes,Skate for Smiles,Long Island University's Pre-Health Club presents Skate for Smiles.,America/New_York,2021-12-18T15:00:00,2021-12-18T17:00:00,2600 Newbridge Road,Bellmore,NY,11710,40.6537998,-73.5358028
171,False,30815573548.0,62281973.0,164987077791.0,charity-and-causes,2021 Open Days at Unbridled,"Connect, Discover, Learn, Meet, Smoozzle, and Read to the Remarkable Rescued Horses of Unbridled.",America/New_York,2021-08-01T11:00:00,2021-11-27T14:30:00,1700 Farm to Market Road,Coxsackie,NY,12051,42.334776,-73.81672
172,False,18369731259.0,62986515.0,168780810949.0,charity-and-causes,2021 NY Art Auction & Reception to Benefit Caritas Cuba,The 2021 NY Friends of Caritas Cuba event will honor Eduardo Mestre and benefit Cuba's largest humanitarian organization.,America/New_York,2021-12-01T18:30:00,2021-12-01T21:30:00,370 Park Avenue,New York,NY,10022,40.7588506,-73.97306120000002
173,False,7174086519.0,61698735.0,161941141313.0,charity-and-causes,Food Pantry,"If you're in need of some food, visit our pantry.",America/New_York,2021-07-08T11:00:00,2021-12-30T12:00:00,164 Suydam Street,Brooklyn,NY,11221,40.6992517,-73.9262689
174,False,34543804753.0,63537269.0,171426560457.0,charity-and-causes,Chanukah Throwdown 2021,YJP and Chabad At Brooklyn Law Schools Chanukah party 2021,America/New_York,2021-12-01T19:30:00,2021-12-02T01:00:00,66 Willoughby Street,Brooklyn,NY,11201,40.6920248,-73.9860832
175,False,18290859998.0,62819681.0,167861150219.0,charity-and-causes,BRIDGES-Comedy Night,"BRIDGES Comedy Night, December 2nd 2021. Featuring Comedians: Tyler Fisher, Joey Rinaldi, Daniel Joye,  Alyssa  Sequoia & Matthew Broderick.",America/New_York,2021-12-02T19:00:00,2021-12-02T22:00:00,425 E Route 59,Nanuet,NY,10954,41.0902176,-73.995344
176,False,19775475063.0,63127331.0,169524960721.0,charity-and-causes,Queensbridge Compost Tour,Join The NYC Compost Project Hosted by Big Reuse for a tour of our Queensbridge compost site! See firsthand how we make compost locally.,America/New_York,2021-09-17T12:00:00,2022-06-03T13:00:00,Queensplaza South between 9th street and Vernon Blvd,Long Island City,NY,11101,40.7540525,-73.94927530000001
177,False,29341695117.0,65581999.0,181508475737.0,charity-and-causes,"Shaukat Khanum Fundraising Gala Dinner in Albany, USA","Fundraising Gala Dinner in Albany, USA in support of Shaukat Khanum Memorial Cancer Hospital and Research Centre being built in Karachi.",America/New_York,2021-12-10T18:00:00,2021-12-10T21:00:00,100 South Mall Arterial,Albany,NY,12242,42.6501631,-73.7599034
178,False,16588587925.0,67752329.0,191724261427.0,charity-and-causes,Antigua and Barbuda Progressive Society Annual Holiday Party and Toy Drive,ABPS will be collecting toys for the Drew Hamilton DayCare Center for children ages 2 - 5 years old.,America/New_York,2021-12-11T14:00:00,2021-12-11T18:00:00,12 West 122nd Street,New York,NY,10027,40.8053343,-73.9461197
179,False,19775475063.0,63148887.0,169631240607.0,charity-and-causes,Queensbridge Compost Work Day,Help keep food scraps out of the landfill and make NYC more sustainable!,America/New_York,2021-09-17T14:00:00,2022-07-01T16:00:00,Queensplaza South between 9th street and Vernon Blvd,Long Island City,NY,11101,40.7540525,-73.94927530000001
180,False,37992638773.0,73712439.0,212218841267.0,auto-boat-and-air,Testing Event,Test summary,America/New_York,2021-12-27T19:00:00,2021-12-27T22:00:00,Times Square,New York,NY,10036,40.7579747,-73.9855426
181,False,17489725036.0,61932939.0,163078533283.0,auto-boat-and-air,Fall Foliage Cruise 2021,Wondering how to spend your time in NYC in autumn differently this year? Hop onboard our Fall Foliage Cruise!,America/New_York,2021-09-25T14:00:00,2021-11-28T16:30:00,299 South Street,New York,NY,10002,40.7100471,-73.9862665
182,False,17489725036.0,69984599.0,199464482637.0,auto-boat-and-air,Santa Fun Cruise with Treats 2021,"If you’re looking for things to do at Christmas in NYC, join us on our Santa Cruise filled with fun Christmas activities for families.",America/New_York,2021-12-05T15:00:00,2021-12-27T16:30:00,"Pier 36, 299 South Street",New York,NY,10002,40.7098927,-73.9844969
183,False,10618410186.0,70838569.0,202052272787.0,auto-boat-and-air,Incredible Christmas Kids Party Cruise Hosted by Santa & His Elves,Incredible Christmas Kids Party Cruise with Santa & Elves,America/New_York,2021-12-18T12:00:00,2021-12-19T18:00:00,2430 FDR Drive,New York,NY,10010,40.7353132,-73.97392109999998
184,False,17489725036.0,68547009.0,194661897977.0,auto-boat-and-air,Thanksgiving Dinner Cruise 2021,Tired of traditional NYC Thanksgiving dinner? Join us on our Thanksgiving Dinner Cruise this year for a special Thanksgiving night.,America/New_York,2021-11-26T19:00:00,2021-11-26T22:00:00,"Pier 36, 299 South Street",New York,NY,10002,40.7098927,-73.9844969
185,False,17489725036.0,73958129.0,214133508087.0,auto-boat-and-air,NYC Holiday Dinner Cruise with Cocoa 2021,"This holiday, we all deserve a special night out with our loved ones.",America/New_York,2021-11-19T19:00:00,2021-12-19T22:00:00,"Pier 36, 299 South Street",New York,NY,10002,40.7098927,-73.9844969
186,False,6252619085.0,70103619.0,199904047387.0,auto-boat-and-air,Trivia Contest #atFXCHD,How many correct answers do you have? Come on over and see for yourself!! You (or your team) might even win!!,America/New_York,2021-12-11T14:00:00,2021-12-11T16:00:00,17890 Goodnough Rd,Adams Center,NY,13606,43.861546,-76.01566500000001
187,False,30854134599.0,74735769.0,217289056417.0,auto-boat-and-air,Metro NY PCA Tour to Saratoga Automobile Museum,"Come visit the Saratoga Automobile Museum to see the Porsche exhibit, Rare Air and RS America.  Only three hours from New York City.",America/New_York,2021-12-18T08:00:00,2021-12-18T11:00:00,110 Avenue of the Pines,Saratoga Springs,NY,12866,43.0570278,-73.8046691
188,False,32068375199.0,73823809.0,212738766377.0,auto-boat-and-air,2022 Triumph Sneak Peek Tour is coming to Brooklyn!,Is Christmas coming early? Triumph's Sneak Peek Tour is coming to Triumph Brooklyn 12/7-12/8!,America/New_York,2021-12-07T10:30:00,2021-12-08T17:00:00,105 Metropolitan Avenue,Brooklyn,NY,11249,40.7167447,-73.9630292
189,False,17489725036.0,73957149.0,214103889497.0,auto-boat-and-air,New Year's Day Dinner Cruise 2022 NYC,Start a brand-new year by gathering your friends and family to board our New Year’s Day Dinner Cruise this year!,America/New_York,2022-01-01T19:30:00,2022-01-01T22:30:00,"Pier 36, 299 South Street",New York,NY,10002,40.7098927,-73.9844969
190,False,31639983301.0,59050405.0,151403288311.0,auto-boat-and-air,VIP NYC Yacht Party Cruise,"*For your safety, this venue will be operating at limited capacity. As such, tickets will sell out fast. If you want to go, don't wait.",America/New_York,2021-04-25T18:00:00,2021-12-12T01:30:00,2430 FDR Drive Service Road East,New York,NY,10010,40.7355481,-73.97441909999999
191,False,32532513583.0,61827393.0,161004056467.0,auto-boat-and-air,2021,0,America/New_York,2021-12-31T19:00:00,2021-12-31T22:00:00,155 6th,New York,NY,10036,40.7579747,-73.9855426
192,False,17489725036.0,62030269.0,163534360675.0,auto-boat-and-air,Bottomless Brunch Cruise in NYC,Skip the line at restaurants and join us for the best Bottomless Brunch Cruise in NYC for the beautiful weather and stunning views!,America/New_York,2021-07-17T12:00:00,2021-12-26T14:00:00,Pier 36,New York,NY,10002,40.7096569,-73.98627789999999
193,False,17489725036.0,69983179.0,199459307157.0,auto-boat-and-air,Santa Brunch Cruise 2021,"Look no further for Christmas things to do in New York, we got you covered!",America/New_York,2021-11-27T12:00:00,2021-12-31T14:00:00,"Pier 36, 299 South Street",New York,NY,10002,40.7098927,-73.9844969
194,False,17489725036.0,73954619.0,213969798427.0,auto-boat-and-air,Christmas Dinner Cruise 2021 in NYC,Our Christmas Dinner Cruise allows you to celebrate the holiday without a hassle!,America/New_York,2021-12-24T19:00:00,2021-12-25T22:30:00,"Pier 36, 299 South Street",New York,NY,10002,40.7098927,-73.9844969
195,False,31387685493.0,55839693.0,134768126093.0,auto-boat-and-air,$90 Helicopter Rides at Westchester Airport,Join us for helicopter rides on select Sundays in 2021 at Westchester County Airport!,America/New_York,2021-01-24T10:00:00,2022-12-18T14:00:00,67 Tower Road,Harrison,NY,10604,41.0637452,-73.7146691
196,False,38313680443.0,74575509.0,216644689097.0,auto-boat-and-air,Metro NY PCA Tour to Saratoga Automobile Museum,"Come visit the Saratoga Automobile Museum to see the Porsche exhibit, Rare Air and RS America.  Only three hours from New York City.",America/New_York,2021-12-18T08:00:00,2021-12-19T11:00:00,110 Avenue of the Pines,Saratoga Springs,NY,12866,43.0570278,-73.8046691
197,False,6389649631.0,73051629.0,209432246487.0,auto-boat-and-air,REGGAETON ON THE RIVER : YACHT CRUISE PARTY : THANKSGIVING WEEKEND : J5CASH,REGGEATON ON THE RIVER : HUDSON RIVER CRUISE PARTY ON INFINITY YACHT,America/New_York,2021-11-27T22:00:00,2021-11-28T02:00:00,353 West Street,New York,NY,10014,40.7292334,-74.011664
198,False,17489725036.0,73956379.0,214066447507.0,auto-boat-and-air,NYC New Year's Day Brunch Cruise 2022,"For a truly special New Year's Day experience, don’t miss the best New Year’s Day Brunch Cruise.",America/New_York,2022-01-01T12:00:00,2022-01-01T14:00:00,"Pier 36, 299 South Street",New York,NY,10002,40.7098927,-73.9844969
199,False,17489725036.0,62030571.0,163538569263.0,auto-boat-and-air,NYC Skyline Dinner Cruise 2021,Looking for an elegant night out on weekends? Set sail with us on our NYC Skyline Dinner Boat Cruise around the harbor!,America/New_York,2021-07-16T19:00:00,2022-12-30T22:00:00,299 South Street,New York,NY,10002,40.7100471,-73.9862665
200,False,31212773621.0,52135479.0,115592276611.0,film-and-media,FREE NYC Comedy Show!,Heated courtyard comedy show featuring NYC's best comedians!!,America/New_York,2020-08-04T19:30:00,2022-06-06T22:00:00,236 West 54th Street,New York,NY,10019,40.7641619,-73.9830573
201,False,2496798094.0,68728329.0,195217088567.0,film-and-media,Power 105.1fm Invasion Black Friday Edition w/ DJ SpinKing & DJ Norie,"Invasion “Black Friday Edition” with DJ SpinKing 
DJ Norie and Friends",America/New_York,2021-11-26T22:00:00,2021-11-27T03:30:00,"147-02 Liberty Ave, Queens, NY 11435",queens,NY,11435,40.6961041,-73.80395089999999
202,False,6439600859.0,68539159.0,194640253237.0,film-and-media,Steve Burton LIVE in Syracuse!,"Meet General Hospital's Jason Morgan - Steve Burton! Stories, Comedy, Q&A and socially distanced Meet & Greet Photo Opportunity!",America/New_York,2021-12-10T19:30:00,2021-12-10T22:30:00,441 Electronics Parkway,Liverpool,NY,13088,43.10252699999999,-76.188574
203,False,26136984079.0,58442455.0,148838392639.0,film-and-media,Gutfeld! Friday Shows,Thank you for submitting your request to be an audience member at GUTFELD! (the “Recording”).,America/New_York,2021-04-09T12:30:00,2022-01-28T15:30:00,1211 Avenue of the Americas,New York,NY,10036-8701,40.758678,-73.9824059
204,False,32323184465.0,63732609.0,172309360937.0,film-and-media,Bitches Brew - Free Comedy Stand Up and Variety Show!,"A FREE Comedy Variety show cooked up for you every Friday, 8:30 at Halyard's Bar Backroom in Gowanus.",America/New_York,2021-09-17T20:30:00,2021-11-26T23:30:00,406 3rd Avenue,Brooklyn,NY,11215,40.6732683,-73.9897719
205,False,13598196697.0,65129399.0,179222859397.0,film-and-media,New Year's Jammers Ball 2021,What better way to celebrate New Year's! Join us for the most upscale NYC party in Brooklyn and celebrate 2022 in Caribbean Power Jam-style,America/New_York,2022-01-01T22:00:00,2022-01-02T04:30:00,275 Liberty Avenue,Brooklyn,NY,11207,40.674041,-73.8999304
206,False,25630873935.0,64588559.0,85287518263.0,film-and-media,Small Town Murder:  As Part of The Shut Up And Give Me Murder Tour,Murmrr is proud to present the Small Town Murder podcast as part of The Shut Up And Give Me Murder Tour.,America/New_York,2021-12-04T20:00:00,2021-12-04T23:00:00,288 Berry Street,Brooklyn,NY,11249,40.7136181,-73.9641317
207,False,33551502925.0,68994379.0,196038475357.0,film-and-media,The Real Housewives Of Buffalo w/s/g Kandy Muse! Hosted by Daphne York,Kandy Muse Takes Over Buffalo!,America/New_York,2021-11-27T22:00:00,2021-11-28T01:00:00,248 Allen Street,Buffalo,NY,14201,42.8993901,-78.87935759999999
208,False,15074869553.0,66724779.0,187827175137.0,film-and-media,Bachelorette Watch Party every Tuesday!,"Watch the MOST DRAMATIC SEASON EVER of the Bachelorette, every Tuesday at Ferns. 
Comedians Jenny Gorelick, Katie Jo, and Lexi Notrica.",America/New_York,2021-10-19T19:30:00,2022-02-01T21:30:00,"166 1st Avenue,",New York,NY,10009,40.7288353,-73.9840873
209,False,3577839783.0,61902233.0,162941405129.0,film-and-media,FREE KIDS ACTING CLASS with EMMY AWARD WINNER- Michelle Watson,Kids Acting and Voice Over,America/New_York,2021-12-18T10:00:00,2021-12-18T13:00:00,520 8th ave,New York,NY,10018,40.753615,-73.9920415
210,False,6050878719.0,58288867.0,148244044929.0,film-and-media,"Last Call Comedy show with comics from Comedy Central, NBC, HBO, & more!","Last Call Comedy show with comics from Comedy Central, NBC, HBO, & more!",America/New_York,2021-04-01T19:30:00,2022-01-06T21:30:00,15-35 Decatur Street,Queens,NY,11385,40.693822,-73.90283499999998
211,False,33551502925.0,69017749.0,196079658537.0,film-and-media,A Night with Kandy Muse,"A Night With Kandy Muse At Lost & Found in Albany, NY",America/New_York,2021-12-10T22:00:00,2021-12-11T01:00:00,942 Broadway,Albany,NY,12207,42.6623611,-73.74406429999999
212,False,936843317.0,68162929.0,193071511087.0,film-and-media,Steve Burton LIVE in Rochester!,"Meet General Hospital's Jason Morgan - Steve Burton! Stories, comedy, Q&A and a socially distanced Meet & Greet Photo!",America/New_York,2021-12-11T13:00:00,2021-12-11T16:00:00,155 North Chestnut Street,Rochester,NY,14604,43.1604263,-77.6037566
213,False,20046779996.0,60802937.0,158328592081.0,film-and-media,Wicked Laughs Comedy Show! Hosted by Oscar Aydin,-,America/New_York,2021-06-17T19:30:00,2022-12-07T21:30:00,,,,,,
214,False,33153784247.0,61620069.0,161570970121.0,film-and-media,Heavy Pet Comedy!,"A stand-up comedy bonanza, featuring some of New York’s best and brightest. JOIN US AT THE COMEDY SHOP EVERY MONTH!",America/New_York,2021-07-12T20:00:00,2023-04-10T22:00:00,167 Bleecker Street,New York,NY,10012,40.72878980000001,-74.00014709999999
215,False,33840302469.0,60964773.0,158990022437.0,film-and-media,Big Break Stand-Up,Veterans of the NY comedy scene Gabe Pacheco (Halal Cartels Podcast) & Khalid Rahmaan (Conan) host a red-hot lineup in The Nest @ Bluebird!,America/New_York,2021-07-10T19:30:00,2021-12-11T22:00:00,504 Flatbush Avenue,Brooklyn,NY,11225,40.66173,-73.96186
216,False,25273000233.0,34413189.0,190633348477.0,film-and-media,Tig Notaro,DSP Shows presents Tig Notaro live in Asbury Hall,America/New_York,2022-01-15T19:00:00,2022-01-15T22:00:00,341 Delaware Avenue,Buffalo,NY,14202,42.8936725,-78.8752182
217,False,26136984079.0,58441517.0,148835522053.0,film-and-media,Gutfeld!,Thank you for submitting your request to be an audience member at GUTFELD! (the “Recording”).,America/New_York,2021-04-05T17:00:00,2022-01-27T19:30:00,1211 Avenue of the Americas,New York,NY,10036-8701,40.758678,-73.9824059
218,False,30784606284.0,73930819.0,144760999045.0,film-and-media,Unapologetic Voice,A night for the poet. A poet who has something unapologetic to say.,America/New_York,2021-04-22T20:00:00,2021-12-22T22:00:00,255 McKibbin Street,Brooklyn,NY,11206,40.7058911,-73.93717869999999
219,False,32362213771.0,59398739.0,152851463843.0,film-and-media,the BREWERY COMEDY TOUR at JAMESPORT FARM,Top notch comedians traveling the country in crews of 2-4 comedians performing seven nights a week in 48 states.,America/New_York,2021-05-26T19:00:00,2021-12-01T20:30:00,5873 Sound Avenue,Riverhead,NY,11901,40.9796871,-72.5990455
220,False,6405113123.0,62036935.0,163581712305.0,food-and-drink,New Years Eve Party 2022,Beer Authority is an exciting craft beer bar located in the heart of times square. It features three spacious floors with 90 taps and over 1,America/New_York,2021-12-31T20:00:00,2022-01-01T01:00:00,300 West 40th Street,New York,NY,10018,40.755932,-73.99114700000001
221,False,8237616478.0,63157721.0,140950379379.0,food-and-drink,"CEO FRESH PRESENTS: "" BRUNCH N SHHH.. "" EVERY SATURDAY  @KATRA NYC","EVERY SATURDAY BRUNCH @KATRA NYC...FOR BRUNCH RESERVATIONS, BOTTLE SERVICE, BDAY'S OR  INFO: 646.522.5400 OR CEOFRESH@GMAIL.COM",America/New_York,2021-02-20T14:00:00,2022-01-01T22:00:00,217 Bowery,New York,NY,10002,40.72169290000001,-73.9931265
222,False,8237616478.0,45163653.0,46295868188.0,food-and-drink,"CEO FRESH PRESENTS: "" SATURDAY NIGHT LIGHTS "" @ DOUX SUPPER CLUB NYC","Every Saturday @Doux For Bottle Service, Birthday’s, Rsvp Or Info: 646.522.5400",America/New_York,2018-06-02T23:00:00,2022-03-27T04:00:00,59 West 21st Street,New York,NY,10010,40.74107300000001,-73.99293
223,False,17902698757.0,59144227.0,151819410945.0,food-and-drink,Tea Sit: Meditate + Learn,"Join us at Chinatown Soup for an intimate tea meditation. This September, we're brewing a selection of seasonal Pu'er from Mangjing Village.",America/New_York,2021-05-16T16:00:00,2021-12-19T17:30:00,"16B Orchard Street, New York, NY, USA",New York City,NY,10002,40.71523130000001,-73.99163340000001
224,False,29392101509.0,68405439.0,194140187527.0,food-and-drink,Cookie Decorating Class - Christmas Theme FREE DRINK!,Beginner Cookie Decorating and Cider Sipping! Learn how to create beautiful cookies for your Christmas table. FREE DRINK!,America/New_York,2021-12-15T18:30:00,2021-12-15T20:00:00,928 Manitou Road,Hilton,NY,14468,43.2720659,-77.74885239999998
225,False,5716345263.0,61901989.0,162940269733.0,food-and-drink,2 FOR 1 DRINKS @ GAME NIGHT 7Pm-9Pm open till 1AM,"Join us for 2 for 1 Drinks, Top 40 Music - Hip Hop, Reggae, R&B, & Trap, along with Jenga, Uno, Connect 4, Spades, and much more!  21+",America/New_York,2021-07-14T17:00:00,2023-06-08T01:00:00,48 West 21st Street,New York,NY,10010,40.74107300000001,-73.99293
226,False,9789186973.0,68000249.0,192609037817.0,food-and-drink,Glow New Years Day Party @ Caribbean Saturdays,Saturday January 1st  Glow New Years Day Party @ Hudson Station | Everyone Free Entry with Rsvp,America/New_York,2022-01-01T23:00:00,2022-01-02T04:00:00,440 9th Avenue,New York,NY,10001,40.7538231,-73.99573149999999
227,False,3066298888.0,62439711.0,165894558089.0,food-and-drink,"Brooklyn Chocolate, Wine & Whiskey Festival","We're Back for Our 3rd Year...
Brooklyn Chocolate, Wine & Whiskey Festival
UNLIMITED TASTING OF CHOCOLATES/WINE/CRAFT SPIRITS INCLUSIVE",America/New_York,2022-02-26T11:30:00,2022-02-26T21:00:00,72 Noble Street,Brooklyn,NY,11222,40.728157,-73.9577974
228,False,1571441626.0,64742399.0,177336166247.0,food-and-drink,Soca Afterwork Wednesdays,Soca Afterwork Wednesdays with Back 2 Basics | DJ Mega & More,America/New_York,2021-09-22T16:00:00,2021-12-29T23:30:00,847 Flatbush Avenue,Brooklyn,NY,11226,40.6516512,-73.95875939999999
229,False,31487078407.0,60716127.0,158082279353.0,food-and-drink,PARTY AT THE HOTTEST NIGHT CLUBS IN NYC,PARTY AT THE HOTTEST NIGHT CLUBS IN NYC! FOR GUEST LIST & RESERVATIONS TEXT (530) 876-4937,America/New_York,2021-06-04T23:00:00,2022-04-17T04:00:00,NEW YORK CITY,New York,NY,10001,40.75368539999999,-73.9991637
230,False,13636000484.0,63105673.0,169405142341.0,food-and-drink,Rum Punch Tuesdays,Rum Punch Tuesdays Inside Chloe's NYC,America/New_York,2021-09-07T18:00:00,2022-08-31T01:00:00,9413 Avenue L,Brooklyn,NY,11236,40.63762800000001,-73.89741699999999
231,False,33007455063.0,59157277.0,151899171511.0,food-and-drink,The Booze cruise Saturday Yacht  #GQevent #GROUP,"GREAT VIEWS , GOOD PEOPLE  FOOD AND DRINKS AVAILABLE 2 FLOORS OF FUN IN NYC",America/New_York,2021-05-15T18:00:00,2021-11-27T22:00:00,2430 FDR Drive,New York,NY,10010,40.7380558,-73.97369300000003
232,False,29873991289.0,65867139.0,183047599297.0,food-and-drink,New Years Eve 2022: A Time Traveler's Ball,The biggest New Years party in Syracuse RETURNS!,America/New_York,2021-12-31T19:00:00,2022-01-01T01:00:00,100 East Onondaga Street,Syracuse,NY,13202,43.0444909,-76.151835
233,False,31143365139.0,62825899.0,167894008499.0,food-and-drink,Addicted To Brunch @ Salls,Sunday Funday Brunch with NYC Top DJ’s,America/New_York,2021-08-22T13:00:00,2021-12-27T00:00:00,818 10th Avenue,New York,NY,10019,40.76734579999999,-73.9894995
234,False,34333941925.0,62989531.0,168791563109.0,food-and-drink,Bottomed Out Brunch Comedy Show,"Laughs with comedians from HBO, NBC, Comedy Central, and Late Night TVs  with delicious brunch and unlimited drinks.",America/New_York,2021-09-25T12:00:00,2021-12-05T15:00:00,,,,,,
235,False,11044969344.0,63283127.0,170287134403.0,food-and-drink,Elite Fridays Happy Hour,"The best happy hour in Harlem  $8 henny punch, 2 for 1 drinks  &  $5 wings  till 7pm.
 Txt 917-985-9212 for seating",America/New_York,2021-09-10T16:00:00,2022-09-02T23:00:00,510 e 117th street,New York,NY,10035,40.795284,-73.932199
236,False,12167621280.0,62002491.0,163401427067.0,food-and-drink,New Year's Eve at The Empire Rooftop,Celebrate New Year's Eve at The Empire Rooftop.,America/New_York,2021-12-31T21:00:00,2022-01-01T01:00:00,44 West 63rd Street,New York,NY,10023,40.771374,-73.98268180000002
237,False,11044969344.0,56889353.0,85830584589.0,food-and-drink,Melanin n mimosa,Every Saturday Melanin & mimosa brunch 2hr seating unlimited mimosas  w/ food entree to rsvp txt 917-985-9212,America/New_York,2020-03-29T15:00:00,2022-05-28T22:00:00,48 West 21st Street,New York,NY,10010,40.7412912,-73.9931965
238,False,9789186973.0,66930389.0,188822783027.0,food-and-drink,Rum & Coke @ Caribbean Saturdays,Saturday November 27th  Rum Coke @ Hudson Station | Everyone Free Entry with Rsvp,America/New_York,2021-11-27T23:00:00,2021-11-28T04:00:00,440 9th Avenue,New York,NY,10001,40.7538231,-73.99573149999999
239,False,29481084057.0,63230559.0,92802277109.0,food-and-drink,CHOCOLATE  TRUFFLE MAKING  CLASS In a real chocolate factory.,"This blissful event takes place in a real chocolate Factory in Brooklyn.
Let’s learn while sipping your favorite beverage.",America/New_York,2020-02-15T19:30:00,2022-01-31T21:30:00,97 North 10th Street,Brooklyn,NY,11249,40.721049,-73.9581196
240,False,32954921887.0,58935341.0,150996311031.0,food-and-drink,Home Remedies Free Workshop,Health is #1!,America/New_York,2021-04-19T19:00:00,2022-04-18T20:00:00,300 Broadway,New York,NY,10001,40.7149697,-74.00516209999999
241,False,32851416385.0,57987923.0,146664362055.0,food-and-drink,Sundaze Vibes Brunch Day Party Katra NYC Indoor dining soho bowery,Sundays Brunch & Dinner Party Music mixes by NYCs best DJs at Katra Lounge NYC indoor/Outdoor dining Mandatory RSVP,America/New_York,2021-03-21T14:00:00,2021-12-26T22:00:00,217 Bowery,New York,NY,10002,40.72169290000001,-73.9931265
242,False,17489725036.0,58095549.0,147198293057.0,food-and-drink,Wine & Cheese Tasting Cruise with Chocolate,Experience wine tasting like never before!,America/New_York,2021-05-15T16:30:00,2022-09-25T22:30:00,299 South Street,New York,NY,10002,40.7100471,-73.9862665
243,False,5716345263.0,59739237.0,154095883937.0,food-and-drink,R&B Sundays @ Taj Lounge - Hosted by The @BRUNCHXGODS,Sunday Brunch is Back!! $45 Brunch Prefix incl 2 Hours of Mimosas - Follow Us on IG @Brunchxgods,America/New_York,2021-05-09T12:00:00,2021-12-26T23:30:00,48 West 21st Street,New York,NY,10010,40.74107300000001,-73.99293
244,False,6692087983.0,58397049.0,148632994287.0,food-and-drink,Blend Saturdays,Blend Saturdays,America/New_York,2021-04-03T17:00:00,2022-06-26T04:00:00,127-07 Atlantic Avenue,Queens,NY,11419,40.6957164,-73.8207241
245,False,18517929435.0,68561999.0,194705588657.0,food-and-drink,FLOSSING THURSDAYS • EVERYONE FREE BEFORE 11PM • LADIES FREE ALL NITE,SECRET LOCATION IN BROOKLYN. EVERYONE FREE BEFORE 11PM. LADIES FREE ALL NIGHT.,America/New_York,2021-10-21T20:00:00,2021-12-31T02:00:00,PRIVATE LOFT REVEALED TO TICKET HOLDERS ONLY,Brooklyn,NY,,40.6781784,-73.9441579
246,False,34090604403.0,62368473.0,165435344569.0,food-and-drink,FREE STAND-UP COMEDY - EVERY MONDAY,"Boozing & Schmoozing @ 7:30.   Happy  Hour  Drink Specials, Before, During & After the Show! NEVER A COVER CHARGE!!",America/New_York,2021-08-16T19:00:00,2021-12-27T21:30:00,363 West 46th Street,New York,NY,10036,40.7608292,-73.99011449999999
247,False,8892496774.0,54730495.0,129620770213.0,food-and-drink,Katra Fridays Afterwork,"AFTERWORK FRIDAYS

5PM TO 11pm

2 FOR 1 DRINK SPECIALS FROM 4PM TILL 7PM

TABLE RESERVATIONS REQUIRED. 

BOOK NOW or can text me 7187812277",America/New_York,2020-11-20T16:00:00,2021-12-24T22:00:00,217 Bowery,New York,NY,10002,40.7217244,-73.9932124
248,False,18399498179.0,62537663.0,166380477487.0,food-and-drink,Water Street Wine Classes 2021,We want to educate you about wine... come take some quick hour & a half wine courses while tasting new wines and engaging your palate!,America/New_York,2021-09-13T18:30:00,2021-12-06T20:00:00,138 Water Street,Penn Yan,NY,14527,42.6593598,-77.05391410000004
249,False,30829724919.0,62292023.0,165032429439.0,food-and-drink,Curated 4-Course East Village Culinary Journey,"Our East Village, NYC Food Tour showcases the ethnic cuisines and culture that makes this one of the most diverse eating grounds in NYC!",America/New_York,2021-07-31T15:00:00,2023-12-30T18:00:00,https://avitaltours.com/nyc-food-tours/east-village-food-tour-meeting-locations/,New York,NY,10003,40.7264773,-73.98153370000001
250,False,6008097331.0,61384629.0,160589319979.0,food-and-drink,RED LIGHT SPECIAL (EVERYBODY FREE),THE BEST LATE NIGHT PARTY IN THE TRISTATE,America/New_York,2021-06-24T20:00:00,2021-12-31T02:00:00,153 Dubois Avenue,Valley Stream,NY,11581,40.6508664,-73.7013594
251,False,18917151564.0,58301329.0,148289438703.0,food-and-drink,WASTED WEDNESDAYS @ TAJ,"2 for 1 Drinks, $5 Shots, $10 Frozen Drinks, & Free Coal Refills on Hookah 7PM - 9PM  party ends 2AM !!",America/New_York,2021-03-31T17:00:00,2022-07-13T22:00:00,48 West 21st Street,New York,NY,10010,40.7410042,-73.99289699999997
252,False,7971404951.0,67925759.0,192326733437.0,food-and-drink,"R&B Sunday Bottomless Brunch x DayParty, 2-4-1 TopShelf Drinks x Free Entry","R&B Sundays, Brunch x Day Party w/ 2-4-1 Top Shelf Drinks + Free Entry w/ RSVP. Celebrate your bday or special occasion w/ us",America/New_York,2021-10-17T13:00:00,2021-12-27T00:00:00,48 West 21st Street,New York,NY,10010,40.7411202,-73.9927992
253,False,18517929435.0,62932575.0,168464733553.0,food-and-drink,SPLASH WEDNESDAYS • EVERYONE FREE • $8 DRINKS UNTIL 10PM • INDOOR • OUTDOOR,"EACH & EVERY WEDNESDAY SPLASH WEDNESDAYS
Hosted By Juneplum @Aphrodit3__ • FREE ADMISSION • HOOKAH • HAPPY HOUR UNTIL 10PM.",America/New_York,2021-08-25T19:00:00,2021-12-30T01:00:00,8920 Avenue D,Brooklyn,NY,11236,40.6454136,-73.9127688
254,False,12071565564.0,68146859.0,193000609017.0,food-and-drink,IYKYK Thursdays Ladies Night Scorpio Taj London hill  & more,IYKYK Taj on Thursdays Night Out Taj Lounge NYC Celebrate your Birthday For Free Ladies Night Indoor OutDoor Dining Seating NightLife Party,America/New_York,2021-10-21T21:30:00,2021-12-31T04:00:00,48 West 21st Street,New York,NY,10010,40.74107300000001,-73.99293
255,False,15127627290.0,62239207.0,128832035085.0,food-and-drink,$2 TUESDAYS POP-UP SHOP EDITION • $2 SPECIALS BEFORE 8PM,$2 TUESDAYS POP-UP SHOP EDITION. LOCATION REVEALED TO TICKET HOLDERS ONLY. FOR VENDOR REGISTRATION • BIRTHDAYS • TABLES 917.676.6307,America/New_York,2020-11-24T16:00:00,2021-12-28T22:00:00,577 Lafayette Avenue,Brooklyn,NY,11216,40.6900521,-73.9512628
256,False,4985508971.0,38772697.0,73473500217.0,food-and-drink,A1 SATURDAYS @ TRACKS CAFE,A1 SATURDAYS @ TRACKS CAFE,America/New_York,2019-09-21T23:00:00,2022-01-09T04:00:00,1556 Ralph Avenue,Brooklyn,NY,11236,40.6389659,-73.91964439999998
257,False,11044969344.0,58957559.0,126885067653.0,food-and-drink,Spicy Thursday’s @ Taboo,Brand new happy hour event in the heart of nyc in mid town Manhattan,America/New_York,2020-10-29T16:00:00,2022-05-19T23:00:00,406 8th Avenue,New York,NY,10001,40.74975,-73.9948338
258,False,12071565564.0,64716529.0,177210510407.0,food-and-drink,Hot 97 Sundaze Vibes Brunch Day Party Katra NYC All Day Series soho sunday,Sundays Brunch & Dinner Party Avail and Music by NYCs best DJs at Katra Lounge NYC indoor Mandatory RSVP,America/New_York,2021-09-23T05:30:00,2022-01-02T23:00:00,217 Bowery,New York,NY,10002,40.72169290000001,-73.9931265
259,False,36292762353.0,67917449.0,192307445747.0,food-and-drink,CARIBBEAN FRIDAYS,WELCOME TO THE ONLY REAL AUTHENTIC CARIBBEAN EVENT IN NYC..... EVERY FRIDAY COME GET A TASTE OF THE CARIBBEAN FLAVORS.,America/New_York,2021-10-22T23:00:00,2022-01-01T03:00:00,,,,,,
260,False,9789186973.0,68194789.0,193186314467.0,food-and-drink,Trap vs RnB @ Taj: Free entry with rsvp,"Friday December 3rd  @ Taj: 
Everyone Free Entry with Rsvp",America/New_York,2021-12-03T23:00:00,2021-12-04T04:00:00,48 West 21st Street,New York,NY,10010,40.74107300000001,-73.99293
261,False,17325326244.0,64581199.0,176437077047.0,food-and-drink,Flashback Friday's @ The Lavish Venue,"6  hours of your favorite Afrobeats, Dancehall, Reggae, Soca, Hip-Hop and R&B 
 songs past to present.",America/New_York,2021-09-24T20:00:00,2022-12-31T02:00:00,11469 Farmers Boulevard,Queens,NY,11412,40.6961641,-73.7614852
262,False,11920997917.0,62614879.0,166760558319.0,food-and-drink,$1 Wing Night Wednesdays at Doha Bar Lounge,Each & Every Wednesday $1 Wing Night at Doha Bar Lounge. Happy Hour 5PM-7PM Celebrate a Birthday with us Make Your Reservation Today,America/New_York,2021-08-11T17:00:00,2023-07-06T12:00:00,3834 31st Street,Queens,NY,11101,40.7530203,-73.93291339999999
263,False,9789186973.0,68195039.0,193187257287.0,food-and-drink,Dusse vs Hennessy @ Taj: Free entry with rsvp,"Friday December 10th  @ Taj: 
Everyone Free Entry with Rsvp",America/New_York,2021-12-10T23:00:00,2021-12-11T04:00:00,48 West 21st Street,New York,NY,10010,40.74107300000001,-73.99293
264,False,28998199361.0,63118043.0,169487480617.0,food-and-drink,Shoot Your Shot Thursdaze,YOUR FAVORITE PARTY TEAM IS BACK,America/New_York,2021-09-16T18:00:00,2022-03-04T02:00:00,2821 Frederick Douglass Boulevard,New York,NY,10039,40.82634539999999,-73.93958529999999
265,False,16470489986.0,66992299.0,188990625047.0,food-and-drink,Holiday Sip & Shop Appreciation Party,Holiday Sip & Shop,America/New_York,2021-12-04T14:00:00,2021-12-04T19:00:00,Harlem,New York,NY,10032,40.8409822,-73.9447994
266,False,29737564943.0,59161977.0,151914001869.0,food-and-drink,FRIDAY NIGHT GROOVE,Friday Night Groove is back and better...EVERY FRIDAY.,America/New_York,2021-04-23T18:00:00,2023-04-22T00:00:00,2112 Flatbush Avenue,Brooklyn,NY,11234,40.6183094,-73.93252629999999
267,False,29047822307.0,45132383.0,88194537235.0,food-and-drink,Karaoke Night,"Karaoke Night, hosted by Shellz",America/New_York,2020-01-08T20:00:00,2021-12-01T23:00:00,894 Wyckoff Avenue,Brooklyn,NY,11237,40.6969223,-73.90687479999997
268,False,33655147393.0,62943099.0,168507820427.0,food-and-drink,Belly Bussa Comedy Saturday,Advanced Tickets $25,America/New_York,2021-09-11T21:00:00,2021-12-12T00:00:00,393 Bayview Avenue,Amityville,NY,11701,40.68305809999999,-73.4089738
269,False,208347293.0,59841361.0,14814870677.0,food-and-drink,Everything Chocolate™ $59.99,Everything Chocolate™ $59.99,America/New_York,2014-12-08T11:00:00,2022-01-30T14:30:00,14 West 19th Street,New York,NY,10011,40.73934180000001,-73.9924034
270,False,34093762355.0,63101807.0,169389579793.0,food-and-drink,Glamydia Clap's Painted by Filth Drag Brunch,"Glamydia Clap's Painted By Filth DRAG BRUNCH!! Good times, music, drinks and more!",America/New_York,2021-09-11T12:00:00,2022-01-01T16:00:00,961 2nd Avenue,New York,NY,10022,40.7555275,-73.968407
271,False,31487078407.0,59700039.0,153962410715.0,food-and-drink,WASTED FRIDAYS,WASTED FRIDAYS IN NYC,America/New_York,2021-05-07T22:00:00,2022-03-16T22:00:00,27 7th Avenue,New York,NY,10011,40.7373675,-74.0003045
272,False,15708575660.0,66597429.0,187269356687.0,food-and-drink,Wreath + Sip at Cooper's Daughter Spirits,Wreath + Sip event with Flower Blossom Farm at Cooper's Daughter Spirits and food from a local vendor!,America/New_York,2021-12-03T16:00:00,2021-12-03T20:00:00,284 State Route 23,Claverack,,12513,42.220408,-73.712182
273,False,28652464037.0,55051603.0,131116957349.0,food-and-drink,3 Hour Open Bar Every Friday & Saturday Night!,OPEN BAR EVERY FRIDAY & SATURDAY NIGHT AT OSP BAYSIDE!,America/New_York,2020-12-04T18:00:00,2022-03-26T22:00:00,213-10 41st Avenue,Queens,NY,11361,40.76331,-73.77139399999999
274,False,12015580392.0,61014395.0,159185661599.0,food-and-drink,Skinny's on the Hudson Sundays,Skinny's Cantina on the Hudson Sundays,America/New_York,2021-06-13T12:00:00,2021-12-26T22:00:00,701 West 133rd Street,New York,NY,10027,40.8202992,-73.9589649
275,False,18917151564.0,61611195.0,161539961373.0,food-and-drink,R&B SUNDAYS w/ The @BRUNCHXGODS,The BRUNCHXGODS are back with the VIBES! $45 Brunch Prefix incl. 2 Hours of Mimosas - Text 929-445-7325 for reservations,America/New_York,2021-07-04T13:00:00,2022-08-01T02:00:00,48 West 21st Street,New York,NY,10010,40.7410042,-73.99289699999997
276,False,14788198807.0,58541601.0,149361994747.0,food-and-drink,Cheese Tastings at the Farm,Churchtown Dairy Cheese Tasting with Cheesemaker Grace Pullin,America/New_York,2021-04-15T18:00:00,2021-12-23T19:00:00,357 County Route 12,Hudson,NY,12534,42.1782332,-73.72728029999996
277,False,33498734111.0,60381233.0,156941374877.0,food-and-drink,Taste of Haiti Brunch,TASTE OF HAITI BRUNCH,America/New_York,2021-06-14T18:00:00,2022-09-05T00:00:00,3612 Clarendon Road,Brooklyn,NY,11203,40.6434399,-73.94250629999999
278,False,17391741922.0,68520679.0,194598127237.0,food-and-drink,New York City Whiskey and Spirits Fest,Whiskey Fest features over 100 styles of whiskey and spirits. Ticket holders  are able to try their favorite as well as new spirits.,America/New_York,2021-12-04T13:00:00,2021-12-04T21:00:00,135 West 18th Street,New York,NY,10011,40.740637,-73.99635699999999
279,False,36566978523.0,68775059.0,195351992067.0,food-and-drink,Leah and Jaquell Are Having A Baby!,"YOU'RE INVITED!
PLEASE RSVP NO LATER THAN NOV.18TH.
NO CHILDREN PLEASE.",America/New_York,2021-12-05T15:00:00,2021-12-05T19:00:00,65 East Merrick Road,Valley Stream,NY,11580,40.6644725,-73.6957753
280,False,14367075435.0,46534695.0,91360211853.0,health,Virtual Laughter Yoga,Laughter Yoga,America/New_York,2020-02-18T10:30:00,2021-12-09T19:00:00,701 North Broadway,Sleepy Hollow,NY,10591,41.1087955,-73.86334190000002
281,False,30784000070.0,61655933.0,161736158203.0,health,Pranayama △ Joy of Breathing,"Free Online Breathwork Class. Unlock the benefits of Joy of Breathing. Awaken a conscious connection with your body, mind, heart and spirit.",America/New_York,2021-06-30T13:00:00,2021-12-29T13:30:00,When did you last connect to your Soul?,New York City,NY,95655,40.7127753,-74.0059728
282,False,30741679888.0,63245357.0,170103196239.0,health,MAYAN HOT CHOCOLATE MAKING by Virginia,A Healing and spiritual morning to indulge  a traditional hot chocolate recipe in a real chocolate factory +tour .,America/New_York,2021-09-24T10:30:00,2021-12-18T11:30:00,97 North 10th Street,Brooklyn,NY,11249,40.721049,-73.9581196
283,False,21657527853.0,65951329.0,169335062731.0,health,Art Expressions Annual Holiday Celebration,Happy Holidays from NAMI Westchester!,America/New_York,2021-12-01T18:30:00,2021-12-01T20:00:00,275 North Street,Harrison,NY,10528,40.9886651,-73.70934950000003
284,False,18155431589.0,62769657.0,167600470519.0,health,Yoga Class,Yoga Reservation,America/New_York,2021-08-23T17:00:00,2021-12-13T18:00:00,500 Springfield Rd,Syracuse,NY,13214,43.0494837,-76.0854197
285,False,15212187094.0,68329599.0,193795436367.0,health,Bloom: Cultivating Self Acceptance & Authenticity Through Creativity,"Tools to still the mind, foster greater self-compassion, and access inner wisdom while embracing your authentic self.",America/New_York,2021-10-27T13:00:00,2021-12-08T14:30:00,525 West 120th Street,New York,NY,10027,40.810229,-73.95972359999999
286,False,13750128829.0,67213229.0,189844137927.0,health,"What Women Deserve: Supporting Our Physical, Mental & Emotional Well being","Supporting Women's Physical, Mental & Emotional Well being Throughout Our Lives",America/New_York,2021-12-02T18:00:00,2021-12-02T19:30:00,295 Madison Avenue,New York,NY,10017,40.75176439999999,-73.97912939999999
287,False,14367075435.0,44761745.0,87148893687.0,health,Postpartum Support Group,The Postpartum Support Group is a free support group for new mothers.,America/New_York,2020-01-20T11:00:00,2021-12-20T12:00:00,701 North Broadway,Sleepy Hollow,NY,10591,41.1087955,-73.86334190000002
288,False,15212187094.0,68059779.0,192750220097.0,health,Cultivating Connection through Skillful Relationships,Are you looking for more meaning and intimacy in your relationships?,America/New_York,2021-10-25T18:10:00,2021-12-06T19:40:00,2980 Broadway,New York,NY,10027,40.8086046,-73.9627312
289,False,12916347934.0,63098869.0,169375134587.0,health,Moon Gathering Reiki Guided Sound Meditation,Moon Gathering Reiki Guided Sound Meditation,America/New_York,2021-09-24T19:00:00,2021-12-17T21:00:00,90 East 10th Street,New York,NY,10003,40.731083,-73.9896415
290,False,36724563953.0,69381959.0,197337801677.0,health,New Moon Crystal Candle Making & Intention Setting + Reiki & Sound Healing,"Unwind, release, reset, and reimagine your life in perfect balance & harmony, supported by your intentions, kava tea & the magic of sound.",America/New_York,2021-12-04T19:00:00,2021-12-04T22:00:00,137 Commack Road,Commack,NY,11725,40.8395533,-73.2940655
291,False,30776276380.0,66132899.0,184429101407.0,health,"BXFR FRIDAY Group Run, Walk & Run-Walk","Come run, walk or run-walk with us!  All ages & fitness levels welcome.",America/New_York,2021-10-08T18:30:00,2021-12-31T20:30:00,Macombs Dam Park,The Bronx,NY,10451,40.827516,-73.92969099999999
292,False,32661806341.0,57384127.0,143017448037.0,health,Yoni Steam Experience,Brand New Yoni Steam Spa just opened in Brooklyn Ny.,America/New_York,2021-02-25T00:00:00,2022-01-02T00:00:00,444 South 5th Street,Brooklyn,NY,11211,40.70679519999999,-73.9511385
293,False,14506159254.0,66965199.0,188901658947.0,health,Candlelit Slow Flow + Yin Yoga with Gong Bath,Welcome FALL!  Join Robyn Paige for a  Slow Flow + Yin Yoga class by candlelight along with an immersive Gong sound bath with Harold Taddy.,America/New_York,2021-10-19T18:00:00,2021-12-21T19:30:00,52 Sager Drive,Rochester,NY,14607,43.15023679999999,-77.56948469999999
294,False,15212187094.0,68323779.0,193775928017.0,health,Redefining Inherent Worth and Fortifying your Spiritual Core,Tools for people of color and others in underrepresented communities  to cultivate and acknowledge inherent worth and create success.,America/New_York,2021-10-29T10:00:00,2021-12-10T11:30:00,2980 Broadway,New York,NY,10027,40.8086046,-73.9627312
295,False,34289976305.0,63187303.0,169804426611.0,health,"Be The Person You Want To Attract, Overcome Social Anxiety - New York",5-day workshop designed to teach you how to become the person you want to attract in your life and overcome your social anxiety.,America/New_York,2021-09-13T19:00:00,2022-01-03T20:00:00,Virtual via Zoom,New York,NY,10001,40.74702,-73.9915931
296,False,13144716401.0,58606357.0,149563196547.0,health,Guided Meditation for Anxiety(1-1 session),"This class is in-person at Bayside Meditation's physical office, 
including short lecture and meditation.",America/New_York,2021-04-10T14:00:00,2023-03-04T15:00:00,43-24 220th Place,Bayside,NY,11361,40.7620698,-73.76151879999998
297,False,32964685759.0,67098299.0,189342397207.0,health,SENSORIAL DANCE workshop on IMPERMANENCE,We will explore through Sensorial Dance the IMPERMANENCE of life in a sacred and intimate setting.,America/New_York,2021-10-13T17:00:00,2021-12-01T20:00:00,1434 Harrod Avenue,Bronx,NY,10472,40.8350481,-73.87473229999999
298,False,30879776847.0,59815975.0,154342276905.0,health,Beyond Breath - An Introduction to SKY Breath Meditation - Manhattan,"Discover the power of your breath to relieve stress, ease anxiety and calm your mind in a free LIVE and interactive session.",America/New_York,2021-05-12T16:00:00,2021-11-30T22:15:00,(zoom link will be emailed soon),Manhattan,NY,10001,40.7830603,-73.9712488
299,False,33993845801.0,66291299.0,185378310517.0,health,Health Vibes Only! Westchester Expo,Health Vibes Only! Westchester Expo,America/New_York,2021-12-04T09:00:00,2021-12-04T16:00:00,251 South Central Avenue,Hartsdale,NY,10530,41.0128359,-73.8055165
300,False,15212187094.0,68338869.0,193828926537.0,health,Embodying What It Means to be a Conscious Man,"Guided meditation, somatic experiences, breathwork, and reflection to embrace being an open-hearted, embodied and conscious man.",America/New_York,2021-10-26T11:00:00,2021-12-07T12:30:00,525 West 120th Street,New York,NY,10027,40.810229,-73.95972359999999
301,False,15212187094.0,68061659.0,192753309337.0,health,Cultivating Love for our Queer and Trans Selves,Cultivating love for our queer and trans selves,America/New_York,2021-10-28T18:10:00,2021-12-09T19:40:00,2980 Broadway,New York,NY,10027,40.8086046,-73.9627312
302,False,15305770625.0,61275039.0,160162254615.0,health,Conquer Overthinking And Make Lasting Changes,Learn the 4-step action model to train your mind to get the results you want and the happiness you deserve.,America/New_York,2021-06-24T04:00:00,2022-03-31T04:00:00,New York Online,New York,NY,,40.7127753,-74.0059728
303,False,18991703802.0,67012659.0,189033212427.0,health,Nick Curry Memorial  Holiday open,"Nick Curry was a  great lifter and a avid coach   that inspired many. Please come out and enjoy the sport he loved the most, WEIGHTLIFTING !",America/New_York,2021-12-12T07:30:00,2021-12-12T22:00:00,Eileen Wa140 Eileen way Syosset 11791y,Syosset,NY,11791,40.8039852,-73.5225091
304,False,16689482276.0,61957003.0,163167699983.0,health,New York One Day Medical and Adult Use  Marijuana Masterclass Workshop,New York One Day Medical Marijuana Masterclass Workshop by Leafy Green Agency,America/New_York,2021-12-11T09:00:00,2021-12-11T16:00:00,125 Flatbush Ave Ext.,Brooklyn,NY,11201,40.6956428,-73.9840187
305,False,26875807895.0,59214305.0,152147307693.0,health,Zumba Tuesdays & Thursdays with Melissa,Zumba with Melissa Tuesdays and Thursdays.,America/New_York,2021-04-27T18:00:00,2021-12-30T19:00:00,3190 Westchester Avenue,The Bronx,NY,10461,40.851256,-73.829555
306,False,23060458099.0,65566589.0,181437774267.0,health,Project Health Africa Fundraising Gala,Give! Donate! Care!.,America/New_York,2021-12-04T15:00:00,2021-12-04T19:00:00,2565 Balltown Road,Schenectady,NY,12309,42.83291850000001,-73.8945258
307,False,18225415068.0,66835099.0,188422575997.0,health,BODY & BRAIN YOGA AND TAI-CHI CLASSES,"FOR A HEALTHIER, HAPPIER LIFE
We offer the best in holistic fitness through online and in-studio classes featuring a blend of Yoga, Tai Chi,",America/New_York,2021-10-08T12:00:00,2021-12-31T13:00:00,830 6th ave,New York,NY,10001,40.7463965,-73.98991330000001
308,False,34289976305.0,63262285.0,170182140363.0,health,"Be The Person You Want To Attract, Overcome Social Anxiety -Syracuse",5-day workshop designed to teach you how to become the person you want to attract in your life and overcome your social anxiety.,America/New_York,2021-09-13T19:00:00,2022-01-03T20:00:00,Virtual via Zoom,Syracuse,NY,13201,43.0452574,-76.15272759999999
309,False,34849902543.0,64299789.0,175018253307.0,health,Run/Walk  Sunday Morning Group. We go the distance.,All levels Sunday morning group run,America/New_York,2021-10-03T08:00:00,2021-12-26T11:00:00,153rd St and Grand Concourse,NY,NY,10451,40.8211462,-73.9256347
310,False,30921917783.0,61256149.0,160049009897.0,health,"Stretch Class - Injury prevention, joint flexibility & bone health","For bone protection, injury prevention, joint flexibility, and to relieve chronic pain.",America/New_York,2021-06-22T16:00:00,2021-11-27T13:30:00,22 East 21st Street,New York,NY,10010,40.7394389,-73.98913809999999
311,False,13580085802.0,19513102.0,196205163927.0,health,Drug Test: Psychedelic Variety Show,A dope show literally and figuratively on drugs. Just say know!,America/New_York,2021-12-04T19:00:00,2021-12-04T20:30:00,21 A Clinton Street,New York,NY,10002,40.7206709,-73.9844567
312,False,18225415068.0,66843889.0,188475765087.0,health,AURA READING,Do you want to know more about your energy?,America/New_York,2021-10-11T10:00:00,2021-12-31T20:30:00,830 6th ave,New York,NY,10001,40.7463965,-73.98991330000001
313,False,36483085353.0,68516459.0,194588448287.0,health,Women's Wellness Circle of Nanuet NY,"Women's Wellness Circle Designed to bring you calmness, release stress, and recharge your energy to face life's obstacles!",America/New_York,2021-11-30T18:00:00,2021-11-30T19:30:00,145 Main Street,Nanuet,NY,10954,41.0921735,-74.01300479999999
314,False,3262502768.0,56840181.0,140111644701.0,health,Lunch & Learn 2021,"Join us for lunch and enjoy being with other likeminded, like-hearted individuals who share your passion for using essential oils and living",America/New_York,2021-02-12T12:00:00,2021-12-03T13:00:00,325 Nesconset Highway,Hauppauge,NY,11788,40.8297393,-73.1996198
315,False,31906717461.0,65199759.0,179544070147.0,health,Chicken Yoga for the Soul,"Chicken Yoga at Memorial Park, Beacon",America/New_York,2021-10-09T14:00:00,2021-12-11T15:00:00,Robert Cahill Drive,Beacon,NY,12508,41.510241,-73.96031599999999
